"site.ID","sites.sitename","network","alt.names","super.site","city","state","country","lat","lon","masl","geography.notes","mat","min.temp","max.temp","map","climate.notes","soil.texture","sand","silt","clay","soil.classification","soil.notes","hydrology.notes","site.notes","geographic.area","biogeog","Koeppen","FAO.ecozone","site.ID.v1","measurement.refs","site.ref","ref.notes","lacks.info.from.ori.pub","loaded.from","loaded.by","potential_duplicate_group","potential_duplicate_group_parsed","confirmed.unique","notes","NEW_RECORD"
2072,"Maquipucuna",NA,NA,NA,NA,"","Ecuador",0.083333,-78.616667,1200,NA,18,NA,NA,3198,NA,"NAC","NAC","NAC","NAC","Andisols",NA,NA,NA,NA,NA,NA,NA,NA,NA,NA,2112,NA,"[Cook-Patton database citation, in ForC format]","R script by Valentine Herrmann",NA,NA,NA,NA,TRUE
2073,"Tonaya/El Temazcal",NA,NA,NA,NA,"Jalisco","Mexico",19.7,-103.9,990,NA,NA,NA,NA,650,NA,"NAC","NAC","NAC","NAC","Regosols/Lithosols",NA,NA,NA,NA,NA,NA,NA,NA,NA,NA,2150,NA,"[Cook-Patton database citation, in ForC format]","R script by Valentine Herrmann",NA,NA,NA,NA,TRUE
2074,"Upland area between Kinabalu/Crocker Range Park",NA,NA,NA,NA,"Sabah","Malaysia",5.993611,116.461944,1150,NA,19.5,NA,NA,2250,NA,"NAC","NAC","NAC","NAC",NA,NA,NA,NA,NA,NA,NA,NA,NA,NA,NA,2405,NA,"[Cook-Patton database citation, in ForC format]","R script by Valentine Herrmann",NA,NA,NA,NA,TRUE
2075,"Siming Mountain",NA,NA,NA,NA,"Zhejiang Province","China",29.758333,121.733333,NA,NA,NA,NA,NA,1375,NA,"NAC","NAC","NAC","NAC","Ferralsols",NA,NA,NA,NA,NA,NA,NA,NA,NA,NA,3006,NA,"[Cook-Patton database citation, in ForC format]","R script by Valentine Herrmann",NA,NA,NA,NA,TRUE
2076,"Mulun National Nature Reserve",NA,NA,NA,NA,"Guangxi Zhuang Autonomous Region","China",25.15,107.983333,NA,NA,16.9,NA,NA,1675,NA,"NAC","NAC","NAC","NAC","lithosols",NA,NA,NA,NA,NA,NA,NA,NA,NA,NA,2082,NA,"[Cook-Patton database citation, in ForC format]","R script by Valentine Herrmann",NA,NA,NA,NA,TRUE
2077,"Tomakomai",NA,NA,NA,NA,"Hokkaido","Japan",42.733333,141.516667,125,NA,7.6,NA,NA,1198,NA,"NAC","NAC","NAC","NAC","regosol",NA,NA,NA,NA,NA,NA,NA,NA,NA,NA,319,NA,"[Cook-Patton database citation, in ForC format]","R script by Valentine Herrmann",NA,NA,NA,NA,TRUE
2078,"Atherton Tablelands",NA,NA,NA,NA,"","Australia",-17.425556,145.603611,775,NA,NA,NA,NA,1670,NA,"NAC","NAC","NAC","NAC","ferrosols/dermosols",NA,NA,NA,NA,NA,NA,NA,NA,NA,NA,2153,NA,"[Cook-Patton database citation, in ForC format]","R script by Valentine Herrmann",NA,NA,NA,NA,TRUE
2079,"Matupi",NA,NA,NA,NA,"Chin","Myanmar",21.600833,93.449722,900,NA,21,NA,NA,1454,NA,"NAC","NAC","NAC","NAC","fluvisol",NA,NA,NA,NA,NA,NA,NA,NA,NA,NA,2504,NA,"[Cook-Patton database citation, in ForC format]","R script by Valentine Herrmann",NA,NA,NA,NA,TRUE
2080,"Lianjiabian F1",NA,NA,NA,NA,"Gansu Province","China",36.036389,108.523056,1450,NA,10,NA,NA,587,NA,"NAC","NAC","NAC","NAC",NA,NA,NA,NA,NA,NA,NA,NA,NA,NA,NA,3860,NA,"[Cook-Patton database citation, in ForC format]","R script by Valentine Herrmann",NA,NA,NA,NA,TRUE
2081,"Lianjiabian F3",NA,NA,NA,NA,"Gansu Province","China",36.049444,108.537222,1449,NA,10,NA,NA,587,NA,"NAC","NAC","NAC","NAC",NA,NA,NA,NA,NA,NA,NA,NA,NA,NA,NA,3862,NA,"[Cook-Patton database citation, in ForC format]","R script by Valentine Herrmann",NA,NA,NA,NA,TRUE
2082,"Lianjiabian F2",NA,NA,NA,NA,"Gansu Province","China",36.051389,108.542222,1437,NA,10,NA,NA,587,NA,"NAC","NAC","NAC","NAC",NA,NA,NA,NA,NA,NA,NA,NA,NA,NA,NA,3861,NA,"[Cook-Patton database citation, in ForC format]","R script by Valentine Herrmann",NA,NA,NA,NA,TRUE
2083,"Lianjiabian S",NA,NA,NA,NA,"Gansu Province","China",36.070556,108.533611,1354,NA,10,NA,NA,587,NA,"NAC","NAC","NAC","NAC",NA,NA,NA,NA,NA,NA,NA,NA,NA,NA,NA,3859,NA,"[Cook-Patton database citation, in ForC format]","R script by Valentine Herrmann",NA,NA,NA,NA,TRUE
2084,"Lianjiabian G1",NA,NA,NA,NA,"Gansu Province","China",36.084444,108.526944,1348,NA,10,NA,NA,587,NA,"NAC","NAC","NAC","NAC",NA,NA,NA,NA,NA,NA,NA,NA,NA,NA,NA,2079,NA,"[Cook-Patton database citation, in ForC format]","R script by Valentine Herrmann",NA,NA,NA,NA,TRUE
2085,"Lianjiabian G2",NA,NA,NA,NA,"Gansu Province","China",36.085833,108.5275,1365,NA,10,NA,NA,587,NA,"NAC","NAC","NAC","NAC",NA,NA,NA,NA,NA,NA,NA,NA,NA,NA,NA,3858,NA,"[Cook-Patton database citation, in ForC format]","R script by Valentine Herrmann",NA,NA,NA,NA,TRUE
2086,"Tapajós National Forest",NA,NA,"Tapajos",NA,"Para","Brazil",-3.040833,-54.905278,NA,NA,25,NA,NA,1820,NA,"NAC","NAC","NAC","NAC","Latosols/Red Yellow Podzolic",NA,NA,NA,NA,NA,NA,NA,NA,NA,NA,2332,NA,"[Cook-Patton database citation, in ForC format]","R script by Valentine Herrmann",NA,NA,NA,NA,TRUE
2087,"Lianjiabian Forest Farm chronosequence 3",NA,NA,NA,NA,"Gansu Province","China",35.833333,108.733333,1375,NA,7.4,NA,NA,587,NA,"14.80.07","NaN","NaN","NaN",NA,NA,NA,NA,NA,NA,NA,NA,NA,NA,NA,3816,NA,"[Cook-Patton database citation, in ForC format]","R script by Valentine Herrmann",NA,NA,NA,NA,TRUE
2088,"Zhifanggou watershed chronosequence 1/2",NA,NA,NA,NA,"Shaanxi Province","China",36.775,109.25,1255,NA,9.1,NA,NA,503,NA,"NAC","NAC","NAC","NAC",NA,NA,NA,NA,NA,NA,NA,NA,NA,NA,NA,3863,NA,"[Cook-Patton database citation, in ForC format]","R script by Valentine Herrmann",NA,NA,NA,NA,TRUE
2089,"Bibai",NA,NA,NA,NA,"Hokkaido","Japan",43.266667,141.866667,210,NA,6.4,NA,NA,1151,NA,"NAC","NAC","NAC","NAC",NA,NA,NA,NA,NA,NA,NA,NA,NA,NA,NA,2385,NA,"[Cook-Patton database citation, in ForC format]","R script by Valentine Herrmann",NA,NA,NA,NA,TRUE
2090,"Tohbetsu",NA,NA,NA,NA,"Hokkaido","Japan",43.516667,141.633333,370,NA,6.4,NA,NA,1151,NA,"NAC","NAC","NAC","NAC",NA,NA,NA,NA,NA,NA,NA,NA,NA,NA,NA,2383,NA,"[Cook-Patton database citation, in ForC format]","R script by Valentine Herrmann",NA,NA,NA,NA,TRUE
2091,"Ashibetsu",NA,NA,NA,NA,"Hokkaido","Japan",43.616667,142.083333,550,NA,6.4,NA,NA,1151,NA,"NAC","NAC","NAC","NAC",NA,NA,NA,NA,NA,NA,NA,NA,NA,NA,NA,2382,NA,"[Cook-Patton database citation, in ForC format]","R script by Valentine Herrmann",NA,NA,NA,NA,TRUE
2092,"Okoppe 2",NA,NA,NA,NA,"Hokkaido","Japan",44.283333,142.95,190,NA,6.4,NA,NA,1151,NA,"NAC","NAC","NAC","NAC",NA,NA,NA,NA,NA,NA,NA,NA,NA,NA,NA,2386,NA,"[Cook-Patton database citation, in ForC format]","R script by Valentine Herrmann",NA,NA,NA,NA,TRUE
2093,"Okoppe 1",NA,NA,NA,NA,"Hokkaido","Japan",44.35,143.05,200,NA,6.4,NA,NA,1151,NA,"NAC","NAC","NAC","NAC",NA,NA,NA,NA,NA,NA,NA,NA,NA,NA,NA,2384,NA,"[Cook-Patton database citation, in ForC format]","R script by Valentine Herrmann",NA,NA,NA,NA,TRUE
2094,"Kakamega Forest",NA,NA,NA,NA,"","Kenya",0.258333,34.875,1600,NA,25,NA,NA,1750,NA,"NAC","NAC","NAC","NAC",NA,NA,NA,NA,NA,NA,NA,NA,NA,NA,NA,3628,NA,"[Cook-Patton database citation, in ForC format]","R script by Valentine Herrmann",NA,NA,NA,NA,TRUE
2095,"Tapichalaca",NA,NA,NA,NA,NA,"Ecuador",-4.5,-79.1,2250,NA,18.7,NA,NA,1250,NA,"NAC","NAC","NAC","NAC",NA,NA,NA,NA,NA,NA,NA,NA,NA,NA,NA,2016,NA,"[Cook-Patton database citation, in ForC format]","R script by Valentine Herrmann",NA,NA,NA,NA,TRUE
2096,"Buenaventura",NA,NA,NA,NA,"El Oro","Ecuador",-3.7,-79.7,659,NA,22.5,NA,NA,1475,NA,"NAC","NAC","NAC","NAC",NA,NA,NA,NA,NA,NA,NA,NA,NA,NA,NA,2015,NA,"[Cook-Patton database citation, in ForC format]","R script by Valentine Herrmann",NA,NA,NA,NA,TRUE
2097,"Barangay Gaas",NA,NA,NA,NA,"Leyte Island","Philippines",10.424794,123.752959,550,NA,28,NA,NA,4000,NA,"NAC","NAC","NAC","NAC","Andisols",NA,NA,NA,NA,NA,NA,NA,NA,NA,NA,2354,NA,"[Cook-Patton database citation, in ForC format]","R script by Valentine Herrmann",NA,NA,NA,NA,TRUE
2098,"Sao Paulo",NA,NA,NA,NA,NA,"Brazil",-22.32,-47.57,NA,NA,NA,NA,NA,1367,NA,"NAC","NAC","NAC","NAC",NA,NA,NA,NA,NA,NA,NA,NA,NA,NA,NA,14,NA,"[Cook-Patton database citation, in ForC format]","R script by Valentine Herrmann",NA,NA,NA,NA,TRUE
2099,"Serra do Cipo",NA,NA,NA,NA,"","Brazil",-19.35,-43.62,NA,NA,NA,NA,NA,1519,NA,"NAC","NAC","NAC","NAC",NA,NA,NA,NA,NA,NA,NA,NA,NA,NA,NA,15,NA,"[Cook-Patton database citation, in ForC format]","R script by Valentine Herrmann",NA,NA,NA,NA,TRUE
2100,"Cajueiro",NA,NA,NA,NA,"","Brazil",-14.98,-43.9,NA,NA,NA,NA,NA,840,NA,"NAC","NAC","NAC","NAC",NA,NA,NA,NA,NA,NA,NA,NA,NA,NA,NA,7,NA,"[Cook-Patton database citation, in ForC format]","R script by Valentine Herrmann",NA,NA,NA,NA,TRUE
2101,"Marques de Comillas",NA,NA,NA,NA,"Chiapas","Mexico",16.33,-90.67,NA,NA,NA,NA,NA,2250,NA,"NAC","NAC","NAC","NAC",NA,NA,NA,NA,NA,NA,NA,NA,NA,NA,NA,11,NA,"[Cook-Patton database citation, in ForC format]","R script by Valentine Herrmann",NA,NA,NA,NA,TRUE
2102,"Lacandona",NA,NA,NA,NA,"","Mexico",16.54,-90.96,NA,NA,NA,NA,NA,2500,NA,"NAC","NAC","NAC","NAC",NA,NA,NA,NA,NA,NA,NA,NA,NA,NA,NA,9,NA,"[Cook-Patton database citation, in ForC format]","R script by Valentine Herrmann",NA,NA,NA,NA,TRUE
2103,"Zona Norte",NA,NA,NA,NA,"","Mexico",17.27,-91.66,NA,NA,NA,NA,NA,2750,NA,"NAC","NAC","NAC","NAC",NA,NA,NA,NA,NA,NA,NA,NA,NA,NA,NA,16,NA,"[Cook-Patton database citation, in ForC format]","R script by Valentine Herrmann",NA,NA,NA,NA,TRUE
2104,"Chinantla",NA,NA,NA,NA,"","Mexico",17.75,-96.65,NA,NA,NA,NA,NA,3700,NA,"NAC","NAC","NAC","NAC",NA,NA,NA,NA,NA,NA,NA,NA,NA,NA,NA,8,NA,"[Cook-Patton database citation, in ForC format]","R script by Valentine Herrmann",NA,NA,NA,NA,TRUE
2105,"Mulinzi National Nature Reserve",NA,NA,NA,NA,"Hubei Province","China",30.041667,110.133333,1598,NA,15.5,NA,NA,1733,NA,"NAC","NAC","NAC","NAC","Alfisols",NA,NA,NA,NA,NA,NA,NA,NA,NA,NA,2302,NA,"[Cook-Patton database citation, in ForC format]","R script by Valentine Herrmann",NA,NA,NA,NA,TRUE
2106,"Moungmouay",NA,NA,NA,NA,"Luang Prabang Province","Laos",20.271111,103.048611,600,NA,21,NA,NA,1550,NA,"sandy clay-clay loam","NaN","NaN","NaN","Ultisol",NA,NA,NA,NA,NA,NA,NA,NA,NA,NA,2175,NA,"[Cook-Patton database citation, in ForC format]","R script by Valentine Herrmann",NA,NA,NA,NA,TRUE
2107,"Lianjiabian S4",NA,NA,NA,NA,"Gansu Province","China",36.049167,108.528056,1447,NA,7.4,NA,NA,587,NA,"NAC","NAC","NAC","NAC",NA,NA,NA,NA,NA,NA,NA,NA,NA,NA,NA,3867,NA,"[Cook-Patton database citation, in ForC format]","R script by Valentine Herrmann",NA,NA,NA,NA,TRUE
2108,"Lianjiabian S0",NA,NA,NA,NA,"Gansu Province","China",36.074167,108.418056,1482,NA,7.4,NA,NA,587,NA,"NAC","NAC","NAC","NAC",NA,NA,NA,NA,NA,NA,NA,NA,NA,NA,NA,2077,NA,"[Cook-Patton database citation, in ForC format]","R script by Valentine Herrmann",NA,NA,NA,NA,TRUE
2109,"Lianjiabian S2",NA,NA,NA,NA,"Gansu Province","China",36.081111,108.530556,1347,NA,7.4,NA,NA,587,NA,"NAC","NAC","NAC","NAC",NA,NA,NA,NA,NA,NA,NA,NA,NA,NA,NA,3865,NA,"[Cook-Patton database citation, in ForC format]","R script by Valentine Herrmann",NA,NA,NA,NA,TRUE
2110,"Lianjiabian S3",NA,NA,NA,NA,"Gansu Province","China",36.087778,108.529722,1329,NA,7.4,NA,NA,587,NA,"NAC","NAC","NAC","NAC",NA,NA,NA,NA,NA,NA,NA,NA,NA,NA,NA,3866,NA,"[Cook-Patton database citation, in ForC format]","R script by Valentine Herrmann",NA,NA,NA,NA,TRUE
2111,"Lianjiabian S1",NA,NA,NA,NA,"Gansu Province","China",36.088611,108.526667,1410,NA,7.4,NA,NA,587,NA,"NAC","NAC","NAC","NAC",NA,NA,NA,NA,NA,NA,NA,NA,NA,NA,NA,3864,NA,"[Cook-Patton database citation, in ForC format]","R script by Valentine Herrmann",NA,NA,NA,NA,TRUE
2112,"Itatiaia",NA,NA,NA,NA,"Rio de Janeiro","Brazil",-22.466944,-44.581111,NA,NA,NA,NA,NA,NA,NA,"24.21.54","NaN","NaN","NaN","Ultisols/Oxisols",NA,NA,NA,NA,NA,NA,NA,NA,NA,NA,2110,NA,"[Cook-Patton database citation, in ForC format]","R script by Valentine Herrmann",NA,NA,NA,NA,TRUE
2113,"Turumã-Mirim 6",NA,NA,NA,NA,"Amazonas","Brazil",-2.869266,-60.170369,NA,NA,NA,NA,NA,2200,NA,"high clay","NaN","NaN","NaN","latosol",NA,NA,NA,NA,NA,NA,NA,NA,NA,NA,2061,NA,"[Cook-Patton database citation, in ForC format]","R script by Valentine Herrmann",NA,NA,NA,NA,TRUE
2114,"Turumã-Mirim 7",NA,NA,NA,NA,"Amazonas","Brazil",-2.834068,-60.159102,NA,NA,NA,NA,NA,2200,NA,"high clay","NaN","NaN","NaN","latosol",NA,NA,NA,NA,NA,NA,NA,NA,NA,NA,2062,NA,"[Cook-Patton database citation, in ForC format]","R script by Valentine Herrmann",NA,NA,NA,NA,TRUE
2115,"Turumã-Mirim 5",NA,NA,NA,NA,"Amazonas","Brazil",-2.818505,-60.159235,NA,NA,NA,NA,NA,2200,NA,"high clay","NaN","NaN","NaN","latosol",NA,NA,NA,NA,NA,NA,NA,NA,NA,NA,2060,NA,"[Cook-Patton database citation, in ForC format]","R script by Valentine Herrmann",NA,NA,NA,NA,TRUE
2116,"Turumã-Mirim 20",NA,NA,NA,NA,"Amazonas","Brazil",-2.817045,-60.104481,NA,NA,NA,NA,NA,2200,NA,"high clay","NaN","NaN","NaN","latosol",NA,NA,NA,NA,NA,NA,NA,NA,NA,NA,2052,NA,"[Cook-Patton database citation, in ForC format]","R script by Valentine Herrmann",NA,NA,NA,NA,TRUE
2117,"Turumã-Mirim 21",NA,NA,NA,NA,"Amazonas","Brazil",-2.816963,-60.104897,NA,NA,NA,NA,NA,2200,NA,"high clay","NaN","NaN","NaN","latosol",NA,NA,NA,NA,NA,NA,NA,NA,NA,NA,2053,NA,"[Cook-Patton database citation, in ForC format]","R script by Valentine Herrmann",NA,NA,NA,NA,TRUE
2118,"Turumã-Mirim 12",NA,NA,NA,NA,"Amazonas","Brazil",-2.815155,-60.106359,NA,NA,NA,NA,NA,2200,NA,"high clay","NaN","NaN","NaN","latosol",NA,NA,NA,NA,NA,NA,NA,NA,NA,NA,2049,NA,"[Cook-Patton database citation, in ForC format]","R script by Valentine Herrmann",NA,NA,NA,NA,TRUE
2119,"Turumã-Mirim 11",NA,NA,NA,NA,"Amazonas","Brazil",-2.814336,-60.106469,NA,NA,NA,NA,NA,2200,NA,"high clay","NaN","NaN","NaN","latosol",NA,NA,NA,NA,NA,NA,NA,NA,NA,NA,2066,NA,"[Cook-Patton database citation, in ForC format]","R script by Valentine Herrmann",NA,NA,NA,NA,TRUE
2120,"Turumã-Mirim 10",NA,NA,NA,NA,"Amazonas","Brazil",-2.81284,-60.105894,NA,NA,NA,NA,NA,2200,NA,"high clay","NaN","NaN","NaN","latosol",NA,NA,NA,NA,NA,NA,NA,NA,NA,NA,2065,NA,"[Cook-Patton database citation, in ForC format]","R script by Valentine Herrmann",NA,NA,NA,NA,TRUE
2121,"Turumã-Mirim 4",NA,NA,NA,NA,"Amazonas","Brazil",-2.80602,-60.153937,NA,NA,NA,NA,NA,2200,NA,"high clay","NaN","NaN","NaN","latosol",NA,NA,NA,NA,NA,NA,NA,NA,NA,NA,2059,NA,"[Cook-Patton database citation, in ForC format]","R script by Valentine Herrmann",NA,NA,NA,NA,TRUE
2122,"Turumã-Mirim 3",NA,NA,NA,NA,"Amazonas","Brazil",-2.803794,-60.154151,NA,NA,NA,NA,NA,2200,NA,"high clay","NaN","NaN","NaN","latosol",NA,NA,NA,NA,NA,NA,NA,NA,NA,NA,2058,NA,"[Cook-Patton database citation, in ForC format]","R script by Valentine Herrmann",NA,NA,NA,NA,TRUE
2123,"Turumã-Mirim 2",NA,NA,NA,NA,"Amazonas","Brazil",-2.801333,-60.153363,NA,NA,NA,NA,NA,2200,NA,"high clay","NaN","NaN","NaN","latosol",NA,NA,NA,NA,NA,NA,NA,NA,NA,NA,2057,NA,"[Cook-Patton database citation, in ForC format]","R script by Valentine Herrmann",NA,NA,NA,NA,TRUE
2124,"Turumã-Mirim 18",NA,NA,NA,NA,"Amazonas","Brazil",-2.799004,-60.106674,NA,NA,NA,NA,NA,2200,NA,"high clay","NaN","NaN","NaN","latosol",NA,NA,NA,NA,NA,NA,NA,NA,NA,NA,2050,NA,"[Cook-Patton database citation, in ForC format]","R script by Valentine Herrmann",NA,NA,NA,NA,TRUE
2125,"Turumã-Mirim 19",NA,NA,NA,NA,"Amazonas","Brazil",-2.798581,-60.106514,NA,NA,NA,NA,NA,2200,NA,"high clay","NaN","NaN","NaN","latosol",NA,NA,NA,NA,NA,NA,NA,NA,NA,NA,2051,NA,"[Cook-Patton database citation, in ForC format]","R script by Valentine Herrmann",NA,NA,NA,NA,TRUE
2126,"Turumã-Mirim 8",NA,NA,NA,NA,"Amazonas","Brazil",-2.798048,-60.104611,NA,NA,NA,NA,NA,2200,NA,"high clay","NaN","NaN","NaN","latosol",NA,NA,NA,NA,NA,NA,NA,NA,NA,NA,2063,NA,"[Cook-Patton database citation, in ForC format]","R script by Valentine Herrmann",NA,NA,NA,NA,TRUE
2127,"Turumã-Mirim 24",NA,NA,NA,NA,"Amazonas","Brazil",-2.79738,-60.105455,NA,NA,NA,NA,NA,2200,NA,"high clay","NaN","NaN","NaN","latosol",NA,NA,NA,NA,NA,NA,NA,NA,NA,NA,2056,NA,"[Cook-Patton database citation, in ForC format]","R script by Valentine Herrmann",NA,NA,NA,NA,TRUE
2128,"Turumã-Mirim 15",NA,NA,NA,NA,"Amazonas","Brazil",-2.797307,-60.105431,NA,NA,NA,NA,NA,2200,NA,"high clay","NaN","NaN","NaN","latosol",NA,NA,NA,NA,NA,NA,NA,NA,NA,NA,2069,NA,"[Cook-Patton database citation, in ForC format]","R script by Valentine Herrmann",NA,NA,NA,NA,TRUE
2129,"Turumã-Mirim 16",NA,NA,NA,NA,"Amazonas","Brazil",-2.797022,-60.105893,NA,NA,NA,NA,NA,2200,NA,"high clay","NaN","NaN","NaN","latosol",NA,NA,NA,NA,NA,NA,NA,NA,NA,NA,2070,NA,"[Cook-Patton database citation, in ForC format]","R script by Valentine Herrmann",NA,NA,NA,NA,TRUE
2130,"Turumã-Mirim 1",NA,NA,NA,NA,"Amazonas","Brazil",-2.796569,-60.152554,NA,NA,NA,NA,NA,2200,NA,"high clay","NaN","NaN","NaN","latosol",NA,NA,NA,NA,NA,NA,NA,NA,NA,NA,2048,NA,"[Cook-Patton database citation, in ForC format]","R script by Valentine Herrmann",NA,NA,NA,NA,TRUE
2131,"Turumã-Mirim 14",NA,NA,NA,NA,"Amazonas","Brazil",-2.796306,-60.106016,NA,NA,NA,NA,NA,2200,NA,"high clay","NaN","NaN","NaN","latosol",NA,NA,NA,NA,NA,NA,NA,NA,NA,NA,2068,NA,"[Cook-Patton database citation, in ForC format]","R script by Valentine Herrmann",NA,NA,NA,NA,TRUE
2132,"Turumã-Mirim 17",NA,NA,NA,NA,"Amazonas","Brazil",-2.796158,-60.10586,NA,NA,NA,NA,NA,2200,NA,"high clay","NaN","NaN","NaN","latosol",NA,NA,NA,NA,NA,NA,NA,NA,NA,NA,2071,NA,"[Cook-Patton database citation, in ForC format]","R script by Valentine Herrmann",NA,NA,NA,NA,TRUE
2133,"Turumã-Mirim 13",NA,NA,NA,NA,"Amazonas","Brazil",-2.796142,-60.106183,NA,NA,NA,NA,NA,2200,NA,"high clay","NaN","NaN","NaN","latosol",NA,NA,NA,NA,NA,NA,NA,NA,NA,NA,2067,NA,"[Cook-Patton database citation, in ForC format]","R script by Valentine Herrmann",NA,NA,NA,NA,TRUE
2134,"Turumã-Mirim 9",NA,NA,NA,NA,"Amazonas","Brazil",-2.793297,-60.115588,NA,NA,NA,NA,NA,2200,NA,"high clay","NaN","NaN","NaN","latosol",NA,NA,NA,NA,NA,NA,NA,NA,NA,NA,2064,NA,"[Cook-Patton database citation, in ForC format]","R script by Valentine Herrmann",NA,NA,NA,NA,TRUE
2135,"Turumã-Mirim 23",NA,NA,NA,NA,"Amazonas","Brazil",-2.790535,-60.124866,NA,NA,NA,NA,NA,2200,NA,"high clay","NaN","NaN","NaN","latosol",NA,NA,NA,NA,NA,NA,NA,NA,NA,NA,2055,NA,"[Cook-Patton database citation, in ForC format]","R script by Valentine Herrmann",NA,NA,NA,NA,TRUE
2136,"Turumã-Mirim 22",NA,NA,NA,NA,"Amazonas","Brazil",-2.790398,-60.125875,NA,NA,NA,NA,NA,2200,NA,"high clay","NaN","NaN","NaN","latosol",NA,NA,NA,NA,NA,NA,NA,NA,NA,NA,2054,NA,"[Cook-Patton database citation, in ForC format]","R script by Valentine Herrmann",NA,NA,NA,NA,TRUE
2137,"Guzhou",NA,NA,NA,NA,"Guangxi Province","China",24.908333,107.941667,508,NA,19,NA,NA,1380,NA,"NAC","NAC","NAC","NAC",NA,NA,NA,NA,NA,NA,NA,NA,NA,NA,NA,385,NA,"[Cook-Patton database citation, in ForC format]","R script by Valentine Herrmann",NA,NA,NA,NA,TRUE
2138,"Magog",NA,NA,NA,NA,"Quebec","Canada",45.255988,-72.152457,220,NA,NA,NA,NA,NA,NA,"NAC","NAC","NAC","NAC",NA,NA,NA,NA,NA,NA,NA,NA,NA,NA,NA,13978,NA,"[Cook-Patton database citation, in ForC format]","R script by Valentine Herrmann",NA,NA,NA,NA,TRUE
2139,"Roxton Falls",NA,NA,NA,NA,"Quebec","Canada",45.569722,-72.531111,145,NA,NA,NA,NA,NA,NA,"NAC","NAC","NAC","NAC",NA,NA,NA,NA,NA,NA,NA,NA,NA,NA,NA,3538,NA,"[Cook-Patton database citation, in ForC format]","R script by Valentine Herrmann",NA,NA,NA,NA,TRUE
2140,"St. Isidore",NA,NA,NA,NA,"Quebec","Canada",46.5804,-71.088414,420,NA,NA,NA,NA,NA,NA,"NAC","NAC","NAC","NAC",NA,NA,NA,NA,NA,NA,NA,NA,NA,NA,NA,13979,NA,"[Cook-Patton database citation, in ForC format]","R script by Valentine Herrmann",NA,NA,NA,NA,TRUE
2141,"Sungai Wain",NA,NA,NA,NA,"East Kalimantan","Indonesia",-1.06,116.49,40,NA,27,NA,NA,2250,NA,"sandy","NaN","NaN","NaN","Acrisols",NA,NA,NA,NA,NA,NA,NA,NA,NA,NA,2199,NA,"[Cook-Patton database citation, in ForC format]","R script by Valentine Herrmann",NA,NA,NA,NA,TRUE
2142,"Heshan",NA,NA,NA,NA,"Guangdong Province","China",22.566667,112.833333,NA,NA,22.3,NA,NA,1688,NA,"NAC","NAC","NAC","NAC","ultisol",NA,NA,NA,NA,NA,NA,NA,NA,NA,NA,3789,NA,"[Cook-Patton database citation, in ForC format]","R script by Valentine Herrmann",NA,NA,NA,NA,TRUE
2143,"Xishuangbanna National Tropical Rain Forest Reserve",NA,NA,NA,NA,"Yunnan Province","China",21.85,100.766667,655,NA,21.7,NA,NA,1512,NA,"NAC","NAC","NAC","NAC","latosol",NA,NA,NA,NA,NA,NA,NA,NA,NA,NA,3651,NA,"[Cook-Patton database citation, in ForC format]","R script by Valentine Herrmann",NA,NA,NA,NA,TRUE
2144,"Ninos Heroes",NA,NA,NA,NA,"","Mexico",17.25,-91.4,NA,NA,26.5,NA,NA,3500,NA,"NAC","NAC","NAC","NAC",NA,NA,NA,NA,NA,NA,NA,NA,NA,NA,NA,13961,NA,"[Cook-Patton database citation, in ForC format]","R script by Valentine Herrmann",NA,NA,NA,NA,TRUE
2145,"Rieles de San Jose",NA,NA,NA,NA,"","Mexico",17.316667,-91.35,NA,NA,26,NA,NA,3300,NA,"NAC","NAC","NAC","NAC",NA,NA,NA,NA,NA,NA,NA,NA,NA,NA,NA,13959,NA,"[Cook-Patton database citation, in ForC format]","R script by Valentine Herrmann",NA,NA,NA,NA,TRUE
2146,"Veteranos de la Revolucion",NA,NA,NA,NA,"","Mexico",17.383333,-91.35,NA,NA,26,NA,NA,3300,NA,"NAC","NAC","NAC","NAC",NA,NA,NA,NA,NA,NA,NA,NA,NA,NA,NA,13960,NA,"[Cook-Patton database citation, in ForC format]","R script by Valentine Herrmann",NA,NA,NA,NA,TRUE
2147,"Tila",NA,NA,NA,NA,"","Mexico",17.45,-92.35,NA,NA,22.1,NA,NA,3450,NA,"NAC","NAC","NAC","NAC",NA,NA,NA,NA,NA,NA,NA,NA,NA,NA,NA,2180,NA,"[Cook-Patton database citation, in ForC format]","R script by Valentine Herrmann",NA,NA,NA,NA,TRUE
2148,"La Cuchilla",NA,NA,NA,NA,"","Mexico",17.783333,-91.216667,NA,NA,28,NA,NA,1500,NA,"NAC","NAC","NAC","NAC",NA,NA,NA,NA,NA,NA,NA,NA,NA,NA,NA,2179,NA,"[Cook-Patton database citation, in ForC format]","R script by Valentine Herrmann",NA,NA,NA,NA,TRUE
2149,"Yumka",NA,NA,NA,NA,"","Mexico",18,-92.816667,NA,NA,26.9,NA,NA,2159,NA,"NAC","NAC","NAC","NAC",NA,NA,NA,NA,NA,NA,NA,NA,NA,NA,NA,13958,NA,"[Cook-Patton database citation, in ForC format]","R script by Valentine Herrmann",NA,NA,NA,NA,TRUE
2150,"BR-174",NA,NA,NA,NA,"Amazonas","Brazil",-2.533333,-60.033333,NA,NA,NA,NA,NA,NA,NA,"NAC","NAC","NAC","NAC","Oxisols/Ferralsols",NA,NA,NA,NA,NA,NA,NA,NA,NA,NA,3732,NA,"[Cook-Patton database citation, in ForC format]","R script by Valentine Herrmann",NA,NA,NA,NA,TRUE
2151,"Biological Dynamics of Forest Fragments Project",NA,NA,NA,NA,"Amazonas","Brazil",-2.418611,-59.880833,NA,NA,NA,NA,NA,NA,NA,"NAC","NAC","NAC","NAC","Oxisols/Ferralsols",NA,NA,NA,NA,NA,NA,NA,NA,NA,NA,3541,NA,"[Cook-Patton database citation, in ForC format]","R script by Valentine Herrmann",NA,NA,NA,NA,TRUE
2152,"La Colision",NA,NA,NA,NA,"Chubut","Argentina",-42.95,-71.5,990,NA,NA,NA,NA,NA,NA,"NAC","NAC","NAC","NAC",NA,NA,NA,NA,NA,NA,NA,NA,NA,NA,NA,441,NA,"[Cook-Patton database citation, in ForC format]","R script by Valentine Herrmann",NA,NA,NA,NA,TRUE
2153,"La Torta",NA,NA,NA,NA,"Chubut","Argentina",-42.85,-71.55,1140,NA,NA,NA,NA,NA,NA,"NAC","NAC","NAC","NAC",NA,NA,NA,NA,NA,NA,NA,NA,NA,NA,NA,442,NA,"[Cook-Patton database citation, in ForC format]","R script by Valentine Herrmann",NA,NA,NA,NA,TRUE
2154,"Juuka Mineral",NA,NA,NA,NA,"North Carelia","Finland",63.05,29.666667,130,NA,NA,NA,NA,NA,NA,"NAC","NAC","NAC","NAC",NA,NA,NA,NA,NA,NA,NA,NA,NA,NA,NA,2287,NA,"[Cook-Patton database citation, in ForC format]","R script by Valentine Herrmann",NA,NA,NA,NA,TRUE
2155,"Muhos Peatland",NA,NA,NA,NA,"Ostrobothnia","Finland",64.866667,26.066667,75,NA,NA,NA,NA,NA,NA,"NAC","NAC","NAC","NAC",NA,NA,NA,NA,NA,NA,NA,NA,NA,NA,NA,2286,NA,"[Cook-Patton database citation, in ForC format]","R script by Valentine Herrmann",NA,NA,NA,NA,TRUE
2156,"Plantation Forest",NA,NA,NA,NA,"US Virgin Islands","United States",17.736983,-64.753539,127,NA,26.4,NA,NA,1060,NA,"NAC","NAC","NAC","NAC","Mollisols",NA,NA,NA,NA,NA,NA,NA,NA,NA,NA,13964,NA,"[Cook-Patton database citation, in ForC format]","R script by Valentine Herrmann",NA,NA,NA,NA,TRUE
2157,"Young Pasture",NA,NA,NA,NA,"US Virgin Islands","United States",17.739322,-64.784867,45,NA,26.4,NA,NA,1060,NA,"NAC","NAC","NAC","NAC","Mollisols",NA,NA,NA,NA,NA,NA,NA,NA,NA,NA,3759,NA,"[Cook-Patton database citation, in ForC format]","R script by Valentine Herrmann",NA,NA,NA,NA,TRUE
2158,"Old Pasture",NA,NA,NA,NA,"US Virgin Islands","United States",17.74495,-64.774928,9,NA,26.4,NA,NA,1060,NA,"NAC","NAC","NAC","NAC","Mollisols",NA,NA,NA,NA,NA,NA,NA,NA,NA,NA,13967,NA,"[Cook-Patton database citation, in ForC format]","R script by Valentine Herrmann",NA,NA,NA,NA,TRUE
2159,"Chamela-Cuixmala",NA,NA,NA,NA,"Jalisco","Mexico",19.441667,-105,NA,NA,24.6,NA,NA,788,NA,"NAC","NAC","NAC","NAC",NA,NA,NA,NA,NA,NA,NA,NA,NA,NA,NA,18,NA,"[Cook-Patton database citation, in ForC format]","R script by Valentine Herrmann",NA,NA,NA,NA,TRUE
2160,"Alto Beni",NA,NA,NA,NA,"","Bolivia",-15.605278,-67.251389,439,NA,24.7,NA,NA,1402,NA,"..53","NaN","NaN","NaN","cambisols, lixisols, acrisols",NA,NA,NA,NA,NA,NA,NA,NA,NA,NA,3662,NA,"[Cook-Patton database citation, in ForC format]","R script by Valentine Herrmann",NA,NA,NA,NA,TRUE
2161,"Tokaj Nagy-Hill",NA,NA,NA,NA,"","Hungary",48.1175,21.38,247,NA,8.5,NA,NA,617,NA,"NAC","NAC","NAC","NAC","cambisols",NA,NA,NA,NA,NA,NA,NA,NA,NA,NA,2161,NA,"[Cook-Patton database citation, in ForC format]","R script by Valentine Herrmann",NA,NA,NA,NA,TRUE
2162,"Neoboschi",NA,NA,NA,NA,"Trentino","Italy",45.94584,11.25148,1150,NA,7.2,NA,NA,1278,NA,"NAC","NAC","NAC","NAC","cambisols",NA,NA,NA,NA,NA,NA,NA,NA,NA,NA,3723,NA,"[Cook-Patton database citation, in ForC format]","R script by Valentine Herrmann",NA,NA,NA,NA,TRUE
2163,"Presidente Figueiredo DEGR",NA,NA,NA,NA,"Amazonas","Brazil",-1.931111,-59.496389,56,NA,NA,NA,NA,2550,NA,"NAC","NAC","NAC","NAC","Haplustox",NA,NA,NA,NA,NA,NA,NA,NA,NA,NA,3514,NA,"[Cook-Patton database citation, in ForC format]","R script by Valentine Herrmann",NA,NA,NA,NA,TRUE
2164,"Tamanduá",NA,NA,NA,NA,"Paraíba","Brazil",-6.995556,-37.323056,NA,NA,28,NA,NA,700,NA,"NAC","NAC","NAC","NAC","Leptosol",NA,NA,NA,NA,NA,NA,NA,NA,NA,NA,2444,NA,"[Cook-Patton database citation, in ForC format]","R script by Valentine Herrmann",NA,NA,NA,NA,TRUE
2165,"Huron",NA,NA,NA,NA,"Michigan","United States",44.57,-83.98,NA,NA,6.2,NA,NA,7500,NA,"93.06.01","NaN","NaN","NaN","Frigid Typic Udipsamments and Frigid Entic Haplorthods",NA,NA,NA,NA,NA,NA,NA,NA,NA,NA,2242,NA,"[Cook-Patton database citation, in ForC format]","R script by Valentine Herrmann",NA,NA,NA,NA,TRUE
2166,"Ottawa",NA,NA,NA,NA,"Michigan","United States",46.63,-89.25,NA,NA,4.5,NA,NA,7700,NA,"23.27.50","NaN","NaN","NaN","Frigid Vertic Glossudalfs",NA,NA,NA,NA,NA,NA,NA,NA,NA,NA,2243,NA,"[Cook-Patton database citation, in ForC format]","R script by Valentine Herrmann",NA,NA,NA,NA,TRUE
2167,"Chippewa",NA,NA,NA,NA,"Minnesota","United States",47.32,-94.55,NA,NA,3.8,NA,NA,6400,NA,"45.51.04","NaN","NaN","NaN","Frigid Haplic Glossudalfs",NA,NA,NA,NA,NA,NA,NA,NA,NA,NA,2241,NA,"[Cook-Patton database citation, in ForC format]","R script by Valentine Herrmann",NA,NA,NA,NA,TRUE
2168,"Bawangling",NA,NA,NA,NA,"Hainan Island","China",19.033333,109.108333,519,NA,23.6,NA,NA,1677,NA,"NAC","NAC","NAC","NAC",NA,NA,NA,NA,NA,NA,NA,NA,NA,NA,NA,434,NA,"[Cook-Patton database citation, in ForC format]","R script by Valentine Herrmann",NA,NA,NA,NA,TRUE
2169,"Caijiachuan watershed",NA,NA,NA,NA,"Shanxi Province","China",36.266667,110.716667,1125,NA,10,NA,NA,579,NA,"NAC","NAC","NAC","NAC","Carbonic acid cinnamon type",NA,NA,NA,NA,NA,NA,NA,NA,NA,NA,3703,NA,"[Cook-Patton database citation, in ForC format]","R script by Valentine Herrmann",NA,NA,NA,NA,TRUE
2170,"Lianjiabian Pas",NA,NA,NA,NA,"Gansu Province","China",36.048611,108.529167,1432,NA,10,NA,NA,587,NA,"NAC","NAC","NAC","NAC","calcareous cinnamon soil",NA,NA,NA,NA,NA,NA,NA,NA,NA,NA,13981,NA,"[Cook-Patton database citation, in ForC format]","R script by Valentine Herrmann",NA,NA,NA,NA,TRUE
2171,"Lianjiabian Ss",NA,NA,NA,NA,"Gansu Province","China",36.082778,108.531389,1346,NA,10,NA,NA,587,NA,"NAC","NAC","NAC","NAC","calcareous cinnamon soil",NA,NA,NA,NA,NA,NA,NA,NA,NA,NA,13980,NA,"[Cook-Patton database citation, in ForC format]","R script by Valentine Herrmann",NA,NA,NA,NA,TRUE
2172,"Lianjiabian Afs",NA,NA,NA,NA,"Gansu Province","China",36.084722,108.5325,1357,NA,10,NA,NA,587,NA,"NAC","NAC","NAC","NAC","calcareous cinnamon soil",NA,NA,NA,NA,NA,NA,NA,NA,NA,NA,2273,NA,"[Cook-Patton database citation, in ForC format]","R script by Valentine Herrmann",NA,NA,NA,NA,TRUE
2173,"Lianjiabian Hs",NA,NA,NA,NA,"Gansu Province","China",36.088889,108.526944,1330,NA,10,NA,NA,587,NA,"NAC","NAC","NAC","NAC","calcareous cinnamon soil",NA,NA,NA,NA,NA,NA,NA,NA,NA,NA,2274,NA,"[Cook-Patton database citation, in ForC format]","R script by Valentine Herrmann",NA,NA,NA,NA,TRUE
2174,"Agua Salud",NA,NA,NA,NA,"","Panama",9.216667,-79.783333,NA,NA,NA,NA,NA,2700,NA,"silty clay, clay","NaN","NaN","NaN","oxisol",NA,NA,NA,NA,NA,NA,NA,NA,NA,NA,243,NA,"[Cook-Patton database citation, in ForC format]","R script by Valentine Herrmann",NA,NA,NA,NA,TRUE
2175,"Sirchini Arable",NA,NA,NA,NA,"","Russia",59.2,50.7,NA,NA,1,NA,NA,550,NA,"20.55.25","NaN","NaN","NaN","Albeluvisol",NA,NA,NA,NA,NA,NA,NA,NA,NA,NA,3884,NA,"[Cook-Patton database citation, in ForC format]","R script by Valentine Herrmann",NA,NA,NA,NA,TRUE
2176,"Sirchini Chronosequence",NA,NA,NA,NA,"","Russia",59.216667,50.433333,NA,NA,1,NA,NA,550,NA,"20.55.25","NaN","NaN","NaN","Albeluvisol",NA,NA,NA,NA,NA,NA,NA,NA,NA,NA,3885,NA,"[Cook-Patton database citation, in ForC format]","R script by Valentine Herrmann",NA,NA,NA,NA,TRUE
2177,"Mwekera/Katanino",NA,NA,NA,NA,"Copperbelt Province","Zambia",-13.208333,28.533333,1296,NA,NA,NA,NA,1200,NA,"NAC","NAC","NAC","NAC",NA,NA,NA,NA,NA,NA,NA,NA,NA,NA,NA,2283,NA,"[Cook-Patton database citation, in ForC format]","R script by Valentine Herrmann",NA,NA,NA,NA,TRUE
2178,"Miel NC2",NA,NA,NA,NA,"Caldas","Colombia",5.553889,-74.9275,525,NA,NA,NA,NA,5500,NA,"58.14.28","NaN","NaN","NaN",NA,NA,NA,NA,NA,NA,NA,NA,NA,NA,NA,2122,NA,"[Cook-Patton database citation, in ForC format]","R script by Valentine Herrmann",NA,NA,NA,NA,TRUE
2179,"Miel NC5",NA,NA,NA,NA,"Caldas","Colombia",5.554167,-74.893056,530,NA,NA,NA,NA,5500,NA,"58.14.28","NaN","NaN","NaN",NA,NA,NA,NA,NA,NA,NA,NA,NA,NA,NA,2125,NA,"[Cook-Patton database citation, in ForC format]","R script by Valentine Herrmann",NA,NA,NA,NA,TRUE
2180,"Miel NC4",NA,NA,NA,NA,"Caldas","Colombia",5.561667,-74.913611,570,NA,NA,NA,NA,5500,NA,"58.14.28","NaN","NaN","NaN",NA,NA,NA,NA,NA,NA,NA,NA,NA,NA,NA,2124,NA,"[Cook-Patton database citation, in ForC format]","R script by Valentine Herrmann",NA,NA,NA,NA,TRUE
2181,"Miel NC1",NA,NA,NA,NA,"Caldas","Colombia",5.563333,-74.904167,600,NA,NA,NA,NA,5500,NA,"58.14.28","NaN","NaN","NaN",NA,NA,NA,NA,NA,NA,NA,NA,NA,NA,NA,2121,NA,"[Cook-Patton database citation, in ForC format]","R script by Valentine Herrmann",NA,NA,NA,NA,TRUE
2182,"Miel NC3",NA,NA,NA,NA,"Caldas","Colombia",5.565833,-74.9275,652,NA,NA,NA,NA,5500,NA,"58.14.28","NaN","NaN","NaN",NA,NA,NA,NA,NA,NA,NA,NA,NA,NA,NA,2123,NA,"[Cook-Patton database citation, in ForC format]","R script by Valentine Herrmann",NA,NA,NA,NA,TRUE
2183,"San Carlos EA4",NA,NA,NA,NA,"Antioquia","Colombia",6.204444,-74.851389,955,NA,NA,NA,NA,3000,NA,"58.14.28","NaN","NaN","NaN",NA,NA,NA,NA,NA,NA,NA,NA,NA,NA,NA,2129,NA,"[Cook-Patton database citation, in ForC format]","R script by Valentine Herrmann",NA,NA,NA,NA,TRUE
2184,"San Carlos EA5",NA,NA,NA,NA,"Antioquia","Colombia",6.220833,-74.85,790,NA,NA,NA,NA,3000,NA,"58.14.28","NaN","NaN","NaN",NA,NA,NA,NA,NA,NA,NA,NA,NA,NA,NA,2130,NA,"[Cook-Patton database citation, in ForC format]","R script by Valentine Herrmann",NA,NA,NA,NA,TRUE
2185,"San Rafael EA3",NA,NA,NA,NA,"Antioquia","Colombia",6.358889,-75.0075,1330,NA,NA,NA,NA,3540,NA,"58.14.28","NaN","NaN","NaN",NA,NA,NA,NA,NA,NA,NA,NA,NA,NA,NA,2128,NA,"[Cook-Patton database citation, in ForC format]","R script by Valentine Herrmann",NA,NA,NA,NA,TRUE
2186,"San Rafael EA1",NA,NA,NA,NA,"Antioquia","Colombia",6.373056,-75.025278,1300,NA,NA,NA,NA,3540,NA,"58.14.28","NaN","NaN","NaN",NA,NA,NA,NA,NA,NA,NA,NA,NA,NA,NA,2126,NA,"[Cook-Patton database citation, in ForC format]","R script by Valentine Herrmann",NA,NA,NA,NA,TRUE
2187,"San Rafael EA2",NA,NA,NA,NA,"Antioquia","Colombia",6.391944,-75.038889,1280,NA,NA,NA,NA,3540,NA,"58.14.28","NaN","NaN","NaN",NA,NA,NA,NA,NA,NA,NA,NA,NA,NA,NA,2127,NA,"[Cook-Patton database citation, in ForC format]","R script by Valentine Herrmann",NA,NA,NA,NA,TRUE
2188,"Taihe County",NA,NA,NA,NA,"Jiangxi Province","China",26.733333,115.066667,NA,NA,18.6,NA,NA,1363,NA,"NAC","NAC","NAC","NAC","red clay",NA,NA,NA,NA,NA,NA,NA,NA,NA,NA,3710,NA,"[Cook-Patton database citation, in ForC format]","R script by Valentine Herrmann",NA,NA,NA,NA,TRUE
2189,"Degu’a Tembien",NA,NA,NA,NA,"Tigray","Ethiopia",13.583333,39.1,2450,NA,19,NA,NA,749,NA,"NAC","NAC","NAC","NAC",NA,NA,NA,NA,NA,NA,NA,NA,NA,NA,NA,2401,NA,"[Cook-Patton database citation, in ForC format]","R script by Valentine Herrmann",NA,NA,NA,NA,TRUE
2190,"Sobral",NA,NA,NA,NA,"Ceara","Brazil",-3.683333,-40.333333,NA,NA,27,NA,NA,821,NA,"46.21.33","NaN","NaN","NaN","Luvisol",NA,NA,NA,NA,NA,NA,NA,NA,NA,NA,3767,NA,"[Cook-Patton database citation, in ForC format]","R script by Valentine Herrmann",NA,NA,NA,NA,TRUE
2191,"El Ocote biosphere preserve",NA,NA,NA,NA,"Chiapas","Mexico",16.955833,-93.630556,740,NA,NA,NA,NA,2000,NA,"NAC","NAC","NAC","NAC","Leptosols, Luvisols, Regosols",NA,NA,NA,NA,NA,NA,NA,NA,NA,NA,22,NA,"[Cook-Patton database citation, in ForC format]","R script by Valentine Herrmann",NA,NA,NA,NA,TRUE
2192,"Xiaolongshan Mountain",NA,NA,NA,NA,"Gansu Province","China",33.910556,106.195556,930,NA,12.5,NA,NA,771,NA,"sandy","NaN","NaN","NaN",NA,NA,NA,NA,NA,NA,NA,NA,NA,NA,NA,2229,NA,"[Cook-Patton database citation, in ForC format]","R script by Valentine Herrmann",NA,NA,NA,NA,TRUE
2193,"Foping",NA,NA,NA,NA,"","China",33.558333,107.833333,1207,NA,11.8,NA,NA,1075,NA,"NAC","NAC","NAC","NAC","yellow brown",NA,NA,NA,NA,NA,NA,NA,NA,NA,NA,386,NA,"[Cook-Patton database citation, in ForC format]","R script by Valentine Herrmann",NA,NA,NA,NA,TRUE
2194,"Perloja Experimental Station",NA,NA,NA,NA,"","Lithuania",54.166667,24.416667,NA,NA,6.1,NA,NA,640,NA,"NAC","NAC","NAC","NAC","Arenosol",NA,NA,NA,NA,NA,NA,NA,NA,NA,NA,3140,NA,"[Cook-Patton database citation, in ForC format]","R script by Valentine Herrmann",NA,NA,NA,NA,TRUE
2195,"Fire Arc",NA,NA,NA,NA,"Roraima","Brazil",2.5,-61.375,140,NA,NA,NA,NA,2000,NA,"NAC","NAC","NAC","NAC",NA,NA,NA,NA,NA,NA,NA,NA,NA,NA,NA,388,NA,"[Cook-Patton database citation, in ForC format]","R script by Valentine Herrmann",NA,NA,NA,NA,TRUE
2196,"Andranolav",NA,NA,NA,NA,"","Madagascar",-19.966667,44.6,NA,NA,26,NA,NA,791,NA,"NAC","NAC","NAC","NAC","Luvisol",NA,NA,NA,NA,NA,NA,NA,NA,NA,NA,2116,NA,"[Cook-Patton database citation, in ForC format]","R script by Valentine Herrmann",NA,NA,NA,NA,TRUE
2197,"Jiuduhe",NA,NA,NA,NA,"","China",40.358333,116.425,251,NA,9,NA,NA,600,NA,"NAC","NAC","NAC","NAC","cinnamon",NA,NA,NA,NA,NA,NA,NA,NA,NA,NA,3826,NA,"[Cook-Patton database citation, in ForC format]","R script by Valentine Herrmann",NA,NA,NA,NA,TRUE
2198,"Coconino Kaibab 30 burn",NA,NA,NA,NA,"Arizona","United States",35.265556,-111.581944,2190,NA,NA,NA,NA,NA,NA,"NAC","NAC","NAC","NAC","Mollic Eutroboralf",NA,NA,NA,NA,NA,NA,NA,NA,NA,NA,2100,NA,"[Cook-Patton database citation, in ForC format]","R script by Valentine Herrmann",NA,NA,NA,NA,TRUE
2199,"Coconino Kaibab 7 burn",NA,NA,NA,NA,"Arizona","United States",35.274722,-111.813056,2302,NA,NA,NA,NA,NA,NA,"NAC","NAC","NAC","NAC","Typic Argiboroll",NA,NA,NA,NA,NA,NA,NA,NA,NA,NA,2094,NA,"[Cook-Patton database citation, in ForC format]","R script by Valentine Herrmann",NA,NA,NA,NA,TRUE
2200,"Coconino Kaibab 6 burn",NA,NA,NA,NA,"Arizona","United States",35.295,-111.681111,2590,NA,NA,NA,NA,NA,NA,"NAC","NAC","NAC","NAC","Eutric Glossoboralf",NA,NA,NA,NA,NA,NA,NA,NA,NA,NA,2092,NA,"[Cook-Patton database citation, in ForC format]","R script by Valentine Herrmann",NA,NA,NA,NA,TRUE
2201,"Coconino Kaibab 2 burn",NA,NA,NA,NA,"Arizona","United States",35.302222,-111.590833,2280,NA,NA,NA,NA,NA,NA,"NAC","NAC","NAC","NAC","Mollic Eutroboralf",NA,NA,NA,NA,NA,NA,NA,NA,NA,NA,2090,NA,"[Cook-Patton database citation, in ForC format]","R script by Valentine Herrmann",NA,NA,NA,NA,TRUE
2202,"Coconino Kaibab 23 burn",NA,NA,NA,NA,"Arizona","United States",35.350833,-111.934722,2268,NA,NA,NA,NA,NA,NA,"NAC","NAC","NAC","NAC","Mollic Eutroboralf",NA,NA,NA,NA,NA,NA,NA,NA,NA,NA,2098,NA,"[Cook-Patton database citation, in ForC format]","R script by Valentine Herrmann",NA,NA,NA,NA,TRUE
2203,"Coconino Kaibab 11 burn",NA,NA,NA,NA,"Arizona","United States",35.443611,-111.773889,2314,NA,NA,NA,NA,NA,NA,"NAC","NAC","NAC","NAC","Mollic Eutroboralf",NA,NA,NA,NA,NA,NA,NA,NA,NA,NA,2096,NA,"[Cook-Patton database citation, in ForC format]","R script by Valentine Herrmann",NA,NA,NA,NA,TRUE
2204,"Coconino Kaibab 34 burn",NA,NA,NA,NA,"Arizona","United States",35.4475,-111.723056,2190,NA,NA,NA,NA,NA,NA,"NAC","NAC","NAC","NAC","Agriboroll, Vitrandic Ustochrept",NA,NA,NA,NA,NA,NA,NA,NA,NA,NA,13982,NA,"[Cook-Patton database citation, in ForC format]","R script by Valentine Herrmann",NA,NA,NA,NA,TRUE
2205,"El Rincon",NA,NA,NA,NA,"Oaxaca","Mexico",17.375,-95.333333,1850,NA,21,NA,NA,1719,NA,"NAC","NAC","NAC","NAC","Dystrudepts, Udorthents",NA,NA,NA,NA,NA,NA,NA,NA,NA,NA,397,NA,"[Cook-Patton database citation, in ForC format]","R script by Valentine Herrmann",NA,NA,NA,NA,TRUE
2206,"Huanjiang succession",NA,NA,NA,NA,"Guangxi Province","China",24.833333,107.916667,460,NA,18.5,NA,NA,1389,NA,"NAC","NAC","NAC","NAC","Mollic inceptisols",NA,NA,NA,NA,NA,NA,NA,NA,NA,NA,2074,NA,"[Cook-Patton database citation, in ForC format]","R script by Valentine Herrmann",NA,NA,NA,NA,TRUE
2207,"Yellow Jacket",NA,NA,NA,NA,"Arizona","United States",35.038056,-111.311111,1945,NA,NA,NA,NA,461,NA,"NAC","NAC","NAC","NAC","Ustochrepts/Halplustalfs",NA,NA,NA,NA,NA,NA,NA,NA,NA,NA,2292,NA,"[Cook-Patton database citation, in ForC format]","R script by Valentine Herrmann",NA,NA,NA,NA,TRUE
2208,"Jacket",NA,NA,NA,NA,"Arizona","United States",35.063889,-111.356944,1965,NA,NA,NA,NA,457,NA,"NAC","NAC","NAC","NAC","Ustochrepts/Halplustalfs",NA,NA,NA,NA,NA,NA,NA,NA,NA,NA,2289,NA,"[Cook-Patton database citation, in ForC format]","R script by Valentine Herrmann",NA,NA,NA,NA,TRUE
2209,"Lizard",NA,NA,NA,NA,"Arizona","United States",35.151111,-111.35,1905,NA,NA,NA,NA,420,NA,"NAC","NAC","NAC","NAC","Ustochrepts/Halplustalfs",NA,NA,NA,NA,NA,NA,NA,NA,NA,NA,2291,NA,"[Cook-Patton database citation, in ForC format]","R script by Valentine Herrmann",NA,NA,NA,NA,TRUE
2210,"Arnold",NA,NA,NA,NA,"Arizona","United States",35.196944,-111.458056,1955,NA,NA,NA,NA,447,NA,"NAC","NAC","NAC","NAC","Ustochrepts/Halplustalfs",NA,NA,NA,NA,NA,NA,NA,NA,NA,NA,13984,NA,"[Cook-Patton database citation, in ForC format]","R script by Valentine Herrmann",NA,NA,NA,NA,TRUE
2211,"Red Butte west",NA,NA,NA,NA,"Arizona","United States",35.798056,-112.02,1955,NA,NA,NA,NA,324,NA,"NAC","NAC","NAC","NAC","Ustochrepts/Halplustalfs",NA,NA,NA,NA,NA,NA,NA,NA,NA,NA,13985,NA,"[Cook-Patton database citation, in ForC format]","R script by Valentine Herrmann",NA,NA,NA,NA,TRUE
2212,"Dillman",NA,NA,NA,NA,"Arizona","United States",35.811944,-112.026944,1947,NA,NA,NA,NA,321,NA,"NAC","NAC","NAC","NAC","Ustochrepts/Halplustalfs",NA,NA,NA,NA,NA,NA,NA,NA,NA,NA,13983,NA,"[Cook-Patton database citation, in ForC format]","R script by Valentine Herrmann",NA,NA,NA,NA,TRUE
2213,"Griffin",NA,NA,NA,NA,"Arizona","United States",35.991944,-111.23,1940,NA,NA,NA,NA,366,NA,"NAC","NAC","NAC","NAC","Ustochrepts/Halplustalfs",NA,NA,NA,NA,NA,NA,NA,NA,NA,NA,2290,NA,"[Cook-Patton database citation, in ForC format]","R script by Valentine Herrmann",NA,NA,NA,NA,TRUE
2214,"Ansai Research Station",NA,NA,NA,NA,"Shaanxi Province","China",36.776389,109.247778,1221,NA,8.8,NA,NA,505,NA,"NAC","NAC","NAC","NAC","loess derived",NA,NA,NA,NA,NA,NA,NA,NA,NA,NA,7575,NA,"[Cook-Patton database citation, in ForC format]","R script by Valentine Herrmann",NA,NA,NA,NA,TRUE
2215,"Cofre de Perote",NA,NA,NA,NA,"Veracruz","Mexico",19.5,-97.125,3075,NA,9.6,NA,NA,913,NA,"NAC","NAC","NAC","NAC","Andisols",NA,NA,NA,NA,NA,NA,NA,NA,NA,NA,2271,NA,"[Cook-Patton database citation, in ForC format]","R script by Valentine Herrmann",NA,NA,NA,NA,TRUE
2216,"West Bengal",NA,NA,NA,NA,"","India",26.716667,89,NA,NA,NA,NA,NA,NA,NA,"NAC","NAC","NAC","NAC","Inceptisols, Entisols",NA,NA,NA,NA,NA,NA,NA,NA,NA,NA,3572,NA,"[Cook-Patton database citation, in ForC format]","R script by Valentine Herrmann",NA,NA,NA,NA,TRUE
2217,"Hinewai Reserve",NA,NA,NA,NA,"","New Zealand",-43.833333,173.066667,135,NA,NA,NA,NA,NA,NA,"NAC","NAC","NAC","NAC",NA,NA,NA,NA,NA,NA,NA,NA,NA,NA,NA,2505,NA,"[Cook-Patton database citation, in ForC format]","R script by Valentine Herrmann",NA,NA,NA,NA,TRUE
2218,"Queen Charlotte Wilderness/Cape Lambert",NA,NA,NA,NA,"","New Zealand",-41.033333,174.266667,135,NA,NA,NA,NA,NA,NA,"NAC","NAC","NAC","NAC",NA,NA,NA,NA,NA,NA,NA,NA,NA,NA,NA,2506,NA,"[Cook-Patton database citation, in ForC format]","R script by Valentine Herrmann",NA,NA,NA,NA,TRUE
2219,"Dormaa District",NA,NA,NA,NA,"","Ghana",7.5,-3.5,665,NA,NA,NA,NA,1450,NA,"NAC","NAC","NAC","NAC","Ferralsols, Acrisols",NA,NA,NA,NA,NA,NA,NA,NA,NA,NA,3677,NA,"[Cook-Patton database citation, in ForC format]","R script by Valentine Herrmann",NA,NA,NA,NA,TRUE
2220,"Sarapiqui",NA,NA,NA,NA,"Heredia","Costa Rica",10.433333,-86.983333,NA,NA,NA,NA,NA,NA,NA,"NAC","NAC","NAC","NAC",NA,NA,NA,NA,NA,NA,NA,NA,NA,NA,NA,3901,NA,"[Cook-Patton database citation, in ForC format]","R script by Valentine Herrmann",NA,NA,NA,NA,TRUE
2221,"Abandoned cropland",NA,NA,NA,NA,"","Spain",40.05,-4.4,450,NA,15,NA,NA,480,NA,"62.23.15","NaN","NaN","NaN","luvisols",NA,NA,NA,NA,NA,NA,NA,NA,NA,NA,3529,NA,"[Cook-Patton database citation, in ForC format]","R script by Valentine Herrmann",NA,NA,NA,NA,TRUE
2222,"Zafferana Etnea",NA,NA,NA,NA,"Catania","Italy",37.684444,15.054444,750,NA,14,NA,NA,1100,NA,"NAC","NAC","NAC","NAC","Volcanic",NA,NA,NA,NA,NA,NA,NA,NA,NA,NA,2330,NA,"[Cook-Patton database citation, in ForC format]","R script by Valentine Herrmann",NA,NA,NA,NA,TRUE
2223,"Santa Ninfa",NA,NA,NA,NA,"Trapani","Italy",37.769167,12.875556,450,NA,17,NA,NA,654,NA,"NAC","NAC","NAC","NAC","Clay",NA,NA,NA,NA,NA,NA,NA,NA,NA,NA,2325,NA,"[Cook-Patton database citation, in ForC format]","R script by Valentine Herrmann",NA,NA,NA,NA,TRUE
2224,"Maletto",NA,NA,NA,NA,"Catania","Italy",37.827222,14.860833,1000,NA,12.5,NA,NA,900,NA,"NAC","NAC","NAC","NAC","Volcanic",NA,NA,NA,NA,NA,NA,NA,NA,NA,NA,2329,NA,"[Cook-Patton database citation, in ForC format]","R script by Valentine Herrmann",NA,NA,NA,NA,TRUE
2225,"Giacalone",NA,NA,NA,NA,"Palermo","Italy",38.033889,13.23,750,NA,14.5,NA,NA,750,NA,"NAC","NAC","NAC","NAC","Limestone",NA,NA,NA,NA,NA,NA,NA,NA,NA,NA,2328,NA,"[Cook-Patton database citation, in ForC format]","R script by Valentine Herrmann",NA,NA,NA,NA,TRUE
2226,"Misilmeri",NA,NA,NA,NA,"Palermo","Italy",38.04459,13.453355,250,NA,18,NA,NA,700,NA,"NAC","NAC","NAC","NAC","Clay",NA,NA,NA,NA,NA,NA,NA,NA,NA,NA,13989,NA,"[Cook-Patton database citation, in ForC format]","R script by Valentine Herrmann",NA,NA,NA,NA,TRUE
2227,"Trappeto",NA,NA,NA,NA,"Palermo","Italy",38.066389,13.045556,150,NA,17.5,NA,NA,650,NA,"NAC","NAC","NAC","NAC","Sandstone/limestone",NA,NA,NA,NA,NA,NA,NA,NA,NA,NA,2324,NA,"[Cook-Patton database citation, in ForC format]","R script by Valentine Herrmann",NA,NA,NA,NA,TRUE
2228,"San Martino",NA,NA,NA,NA,"Palermo","Italy",38.207222,15.391944,750,NA,14.5,NA,NA,750,NA,"NAC","NAC","NAC","NAC","Limestone",NA,NA,NA,NA,NA,NA,NA,NA,NA,NA,2327,NA,"[Cook-Patton database citation, in ForC format]","R script by Valentine Herrmann",NA,NA,NA,NA,TRUE
2229,"Chiusa Pesio",NA,NA,NA,NA,"Cuneo","Italy",44.187222,7.705833,900,NA,12,NA,NA,1430,NA,"NAC","NAC","NAC","NAC","Sandstone/limestone",NA,NA,NA,NA,NA,NA,NA,NA,NA,NA,2319,NA,"[Cook-Patton database citation, in ForC format]","R script by Valentine Herrmann",NA,NA,NA,NA,TRUE
2230,"Faedis",NA,NA,NA,NA,"Udine","Italy",46.151432,13.336507,800,NA,13,NA,NA,2265,NA,"NAC","NAC","NAC","NAC","Sandstone/limestone",NA,NA,NA,NA,NA,NA,NA,NA,NA,NA,13987,NA,"[Cook-Patton database citation, in ForC format]","R script by Valentine Herrmann",NA,NA,NA,NA,TRUE
2231,"Forgaria del Friuli",NA,NA,NA,NA,"Udine","Italy",46.222222,12.976389,800,NA,13,NA,NA,2055,NA,"NAC","NAC","NAC","NAC","Sandstone/limestone",NA,NA,NA,NA,NA,NA,NA,NA,NA,NA,2320,NA,"[Cook-Patton database citation, in ForC format]","R script by Valentine Herrmann",NA,NA,NA,NA,TRUE
2232,"Taipana",NA,NA,NA,NA,"Udine","Italy",46.250725,13.339259,600,NA,8,NA,NA,2415,NA,"NAC","NAC","NAC","NAC","Sandstone/limestone",NA,NA,NA,NA,NA,NA,NA,NA,NA,NA,13988,NA,"[Cook-Patton database citation, in ForC format]","R script by Valentine Herrmann",NA,NA,NA,NA,TRUE
2233,"Trasaghis",NA,NA,NA,NA,"Udine","Italy",46.287503,13.078102,1000,NA,13,NA,NA,2130,NA,"NAC","NAC","NAC","NAC","Sandstone/limestone",NA,NA,NA,NA,NA,NA,NA,NA,NA,NA,13986,NA,"[Cook-Patton database citation, in ForC format]","R script by Valentine Herrmann",NA,NA,NA,NA,TRUE
2234,"Wanglang Nature Reserve",NA,NA,NA,NA,"","China",32.925,104.041667,2678,NA,2.2,NA,NA,813,NA,"NAC","NAC","NAC","NAC","brown soil",NA,NA,NA,NA,NA,NA,NA,NA,NA,NA,3508,NA,"[Cook-Patton database citation, in ForC format]","R script by Valentine Herrmann",NA,NA,NA,NA,TRUE
2235,"Barito Ulu",NA,NA,NA,NA,"Central Kalimantan","Indonesia",-1.1,114,150,NA,NA,NA,NA,3800,NA,"sandy","NaN","NaN","NaN","ultisol",NA,NA,NA,NA,NA,NA,NA,NA,NA,NA,435,NA,"[Cook-Patton database citation, in ForC format]","R script by Valentine Herrmann",NA,NA,NA,NA,TRUE
2236,"Zamtang",NA,NA,NA,NA,"Sichuan Province","China",32.35,100.733333,3583,NA,4.9,NA,NA,750,NA,"NAC","NAC","NAC","NAC","luvisols",NA,NA,NA,NA,NA,NA,NA,NA,NA,NA,2154,NA,"[Cook-Patton database citation, in ForC format]","R script by Valentine Herrmann",NA,NA,NA,NA,TRUE
2237,"Caiabai Farm",NA,NA,NA,NA,"Mato Grosso","Brazil",-9.944444,-53.336111,NA,NA,24.5,NA,NA,2000,NA,"NAC","NAC","NAC","NAC","Latosols",NA,NA,NA,NA,NA,NA,NA,NA,NA,NA,13971,NA,"[Cook-Patton database citation, in ForC format]","R script by Valentine Herrmann",NA,NA,NA,NA,TRUE
2238,"Alekhin Central-Chernozem Biosphere 59",NA,NA,NA,NA,"","Russia",51.5384,36.305483,NA,NA,5.4,NA,NA,460,NA,"NAC","NAC","NAC","NAC","silty loamy loess",NA,NA,NA,NA,NA,NA,NA,NA,NA,NA,13991,NA,"[Cook-Patton database citation, in ForC format]","R script by Valentine Herrmann",NA,NA,NA,NA,TRUE
2239,"Alekhin Central-Chernozem Biosphere 8",NA,NA,NA,NA,"","Russia",51.539167,36.075833,NA,NA,5.4,NA,NA,460,NA,"NAC","NAC","NAC","NAC","silty loamy loess",NA,NA,NA,NA,NA,NA,NA,NA,NA,NA,2254,NA,"[Cook-Patton database citation, in ForC format]","R script by Valentine Herrmann",NA,NA,NA,NA,TRUE
2240,"Alekhin Central-Chernozem Biosphere Arable",NA,NA,NA,NA,"","Russia",51.539167,36.073611,NA,NA,5.4,NA,NA,460,NA,"NAC","NAC","NAC","NAC","silty loamy loess",NA,NA,NA,NA,NA,NA,NA,NA,NA,NA,2256,NA,"[Cook-Patton database citation, in ForC format]","R script by Valentine Herrmann",NA,NA,NA,NA,TRUE
2241,"Alekhin Central-Chernozem Biosphere 19",NA,NA,NA,NA,"","Russia",51.550556,36.133889,NA,NA,5.4,NA,NA,460,NA,"NAC","NAC","NAC","NAC","silty loamy loess",NA,NA,NA,NA,NA,NA,NA,NA,NA,NA,2255,NA,"[Cook-Patton database citation, in ForC format]","R script by Valentine Herrmann",NA,NA,NA,NA,TRUE
2242,"Alekhin Central-Chernozem Biosphere 37",NA,NA,NA,NA,"","Russia",51.571517,36.086583,NA,NA,5.4,NA,NA,460,NA,"NAC","NAC","NAC","NAC","silty loamy loess",NA,NA,NA,NA,NA,NA,NA,NA,NA,NA,13990,NA,"[Cook-Patton database citation, in ForC format]","R script by Valentine Herrmann",NA,NA,NA,NA,TRUE
2243,"Yucatan",NA,NA,NA,NA,"Yucatan Peninsula","Mexico",20.089444,-89.495833,110,NA,26,NA,NA,1100,NA,"NAC","NAC","NAC","NAC","luvisols, nitosols, cambisols, lithosols",NA,NA,NA,NA,NA,NA,NA,NA,NA,NA,2305,NA,"[Cook-Patton database citation, in ForC format]","R script by Valentine Herrmann",NA,NA,NA,NA,TRUE
2244,"UCI-1981",NA,NA,NA,NA,"Manitoba","Canada",55.863056,-98.485,NA,NA,NA,NA,NA,NA,NA,"NAC","NAC","NAC","NAC",NA,NA,NA,NA,NA,NA,NA,NA,NA,NA,NA,3889,NA,"[Cook-Patton database citation, in ForC format]","R script by Valentine Herrmann",NA,NA,NA,NA,TRUE
2245,"UCI-2003",NA,NA,NA,NA,"Manitoba","Canada",55.898056,-98.216111,NA,NA,NA,NA,NA,NA,NA,"NAC","NAC","NAC","NAC",NA,NA,NA,NA,NA,NA,NA,NA,NA,NA,NA,3886,NA,"[Cook-Patton database citation, in ForC format]","R script by Valentine Herrmann",NA,NA,NA,NA,TRUE
2246,"UCI-1930",NA,NA,NA,NA,"Manitoba","Canada",55.905833,-98.524722,NA,NA,NA,NA,NA,NA,NA,"NAC","NAC","NAC","NAC",NA,NA,NA,NA,NA,NA,NA,NA,NA,NA,NA,3891,NA,"[Cook-Patton database citation, in ForC format]","R script by Valentine Herrmann",NA,NA,NA,NA,TRUE
2247,"UCI-1964",NA,NA,NA,NA,"Manitoba","Canada",55.911667,-98.382222,NA,NA,NA,NA,NA,NA,NA,"NAC","NAC","NAC","NAC",NA,NA,NA,NA,NA,NA,NA,NA,NA,NA,NA,3890,NA,"[Cook-Patton database citation, in ForC format]","R script by Valentine Herrmann",NA,NA,NA,NA,TRUE
2248,"UCI-1989",NA,NA,NA,NA,"Manitoba","Canada",55.916667,-98.964444,NA,NA,NA,NA,NA,NA,NA,"NAC","NAC","NAC","NAC",NA,NA,NA,NA,NA,NA,NA,NA,NA,NA,NA,3888,NA,"[Cook-Patton database citation, in ForC format]","R script by Valentine Herrmann",NA,NA,NA,NA,TRUE
2249,"UCI-1998",NA,NA,NA,NA,"Manitoba","Canada",56.635833,-99.948333,NA,NA,NA,NA,NA,NA,NA,"NAC","NAC","NAC","NAC",NA,NA,NA,NA,NA,NA,NA,NA,NA,NA,NA,3887,NA,"[Cook-Patton database citation, in ForC format]","R script by Valentine Herrmann",NA,NA,NA,NA,TRUE
2250,"Ngogo",NA,NA,NA,NA,"","Uganda",0.45,30.425,NA,NA,NA,NA,NA,1707,NA,"NAC","NAC","NAC","NAC",NA,NA,NA,NA,NA,NA,NA,NA,NA,NA,NA,2156,NA,"[Cook-Patton database citation, in ForC format]","R script by Valentine Herrmann",NA,NA,NA,NA,TRUE
2251,"Tigray",NA,NA,NA,NA,"Tigray","Ethiopia",13.5,38.5,2585,NA,NA,NA,NA,609,NA,"NAC","NAC","NAC","NAC","luvisols, regosols, cambisols, calcisols",NA,NA,NA,NA,NA,NA,NA,NA,NA,NA,2174,NA,"[Cook-Patton database citation, in ForC format]","R script by Valentine Herrmann",NA,NA,NA,NA,TRUE
2252,"Hamakua",NA,NA,NA,NA,"Hawaii","United States",19.5,-155.25,300,NA,23.3,NA,NA,320,NA,"NAC","NAC","NAC","NAC","Acrudoxic Hydrudands",NA,NA,NA,NA,NA,NA,NA,NA,NA,NA,2230,NA,"[Cook-Patton database citation, in ForC format]","R script by Valentine Herrmann",NA,NA,NA,NA,TRUE
2253,"Niah Forest Reserve chronosequence 1/2",NA,NA,NA,NA,"Sarawak","Malaysia",3.65,113.7,NA,NA,27,NA,NA,2800,NA,"clay to sandy loam","NaN","NaN","NaN","Ultisol",NA,NA,NA,NA,NA,NA,NA,NA,NA,NA,298,NA,"[Cook-Patton database citation, in ForC format]","R script by Valentine Herrmann",NA,NA,NA,NA,TRUE
2254,"Mt. Norikura",NA,NA,NA,NA,"Gifu","Japan",36.116667,137.383333,1160,NA,9.1,NA,NA,2400,NA,"NAC","NAC","NAC","NAC",NA,NA,NA,NA,NA,NA,NA,NA,NA,NA,NA,2158,NA,"[Cook-Patton database citation, in ForC format]","R script by Valentine Herrmann",NA,NA,NA,NA,TRUE
2255,"Kuanba forest region",NA,NA,NA,NA,"Sichuan Province","China",32.2,104.316667,1400,NA,11,NA,NA,1187,NA,"NAC","NAC","NAC","NAC",NA,NA,NA,NA,NA,NA,NA,NA,NA,NA,NA,3827,NA,"[Cook-Patton database citation, in ForC format]","R script by Valentine Herrmann",NA,NA,NA,NA,TRUE
2256,"F1",NA,NA,NA,NA,"","China",33.547778,107.818333,1075,NA,11.8,NA,NA,1075,NA,"NAC","NAC","NAC","NAC",NA,NA,NA,NA,NA,NA,NA,NA,NA,NA,NA,3681,NA,"[Cook-Patton database citation, in ForC format]","R script by Valentine Herrmann",NA,NA,NA,NA,TRUE
2257,"F2",NA,NA,NA,NA,"","China",33.552222,107.820833,1100,NA,11.8,NA,NA,1075,NA,"NAC","NAC","NAC","NAC",NA,NA,NA,NA,NA,NA,NA,NA,NA,NA,NA,3876,NA,"[Cook-Patton database citation, in ForC format]","R script by Valentine Herrmann",NA,NA,NA,NA,TRUE
2258,"F3",NA,NA,NA,NA,"","China",33.583889,107.843333,1202,NA,11.8,NA,NA,1075,NA,"NAC","NAC","NAC","NAC",NA,NA,NA,NA,NA,NA,NA,NA,NA,NA,NA,3500,NA,"[Cook-Patton database citation, in ForC format]","R script by Valentine Herrmann",NA,NA,NA,NA,TRUE
2259,"H1",NA,NA,NA,NA,"","China",33.584444,107.844722,1252,NA,11.8,NA,NA,1075,NA,"NAC","NAC","NAC","NAC",NA,NA,NA,NA,NA,NA,NA,NA,NA,NA,NA,3785,NA,"[Cook-Patton database citation, in ForC format]","R script by Valentine Herrmann",NA,NA,NA,NA,TRUE
2260,"H2",NA,NA,NA,NA,"","China",33.581944,107.841944,1233,NA,11.8,NA,NA,1075,NA,"NAC","NAC","NAC","NAC",NA,NA,NA,NA,NA,NA,NA,NA,NA,NA,NA,3516,NA,"[Cook-Patton database citation, in ForC format]","R script by Valentine Herrmann",NA,NA,NA,NA,TRUE
2261,"H3",NA,NA,NA,NA,"","China",33.561667,107.825278,1130,NA,11.8,NA,NA,1075,NA,"NAC","NAC","NAC","NAC",NA,NA,NA,NA,NA,NA,NA,NA,NA,NA,NA,3814,NA,"[Cook-Patton database citation, in ForC format]","R script by Valentine Herrmann",NA,NA,NA,NA,TRUE
2262,"N1",NA,NA,NA,NA,"","China",33.581667,107.841944,1280,NA,11.8,NA,NA,1075,NA,"NAC","NAC","NAC","NAC",NA,NA,NA,NA,NA,NA,NA,NA,NA,NA,NA,3791,NA,"[Cook-Patton database citation, in ForC format]","R script by Valentine Herrmann",NA,NA,NA,NA,TRUE
2263,"N2",NA,NA,NA,NA,"","China",33.5625,107.825556,1140,NA,11.8,NA,NA,1075,NA,"NAC","NAC","NAC","NAC",NA,NA,NA,NA,NA,NA,NA,NA,NA,NA,NA,3616,NA,"[Cook-Patton database citation, in ForC format]","R script by Valentine Herrmann",NA,NA,NA,NA,TRUE
2264,"S1",NA,NA,NA,NA,"","China",33.553333,107.8225,1098,NA,11.8,NA,NA,1075,NA,"NAC","NAC","NAC","NAC",NA,NA,NA,NA,NA,NA,NA,NA,NA,NA,NA,3799,NA,"[Cook-Patton database citation, in ForC format]","R script by Valentine Herrmann",NA,NA,NA,NA,TRUE
2265,"S2",NA,NA,NA,NA,"","China",33.587778,107.850556,1290,NA,11.8,NA,NA,1075,NA,"NAC","NAC","NAC","NAC",NA,NA,NA,NA,NA,NA,NA,NA,NA,NA,NA,3633,NA,"[Cook-Patton database citation, in ForC format]","R script by Valentine Herrmann",NA,NA,NA,NA,TRUE
2266,"S3",NA,NA,NA,NA,"","China",33.584722,107.844444,1251,NA,11.8,NA,NA,1075,NA,"NAC","NAC","NAC","NAC",NA,NA,NA,NA,NA,NA,NA,NA,NA,NA,NA,3745,NA,"[Cook-Patton database citation, in ForC format]","R script by Valentine Herrmann",NA,NA,NA,NA,TRUE
2267,"S4",NA,NA,NA,NA,"","China",33.5525,107.820833,1092,NA,11.8,NA,NA,1075,NA,"NAC","NAC","NAC","NAC",NA,NA,NA,NA,NA,NA,NA,NA,NA,NA,NA,3600,NA,"[Cook-Patton database citation, in ForC format]","R script by Valentine Herrmann",NA,NA,NA,NA,TRUE
2268,"N3",NA,NA,NA,NA,"","China",33.589167,107.853611,1301,NA,11.8,NA,NA,1075,NA,"NAC","NAC","NAC","NAC",NA,NA,NA,NA,NA,NA,NA,NA,NA,NA,NA,13992,NA,"[Cook-Patton database citation, in ForC format]","R script by Valentine Herrmann",NA,NA,NA,NA,TRUE
2269,"N4",NA,NA,NA,NA,"","China",33.585556,107.85,1298,NA,11.8,NA,NA,1075,NA,"NAC","NAC","NAC","NAC",NA,NA,NA,NA,NA,NA,NA,NA,NA,NA,NA,13993,NA,"[Cook-Patton database citation, in ForC format]","R script by Valentine Herrmann",NA,NA,NA,NA,TRUE
2270,"N5",NA,NA,NA,NA,"","China",33.588889,107.851944,1276,NA,11.8,NA,NA,1075,NA,"NAC","NAC","NAC","NAC",NA,NA,NA,NA,NA,NA,NA,NA,NA,NA,NA,13994,NA,"[Cook-Patton database citation, in ForC format]","R script by Valentine Herrmann",NA,NA,NA,NA,TRUE
2271,"N6",NA,NA,NA,NA,"","China",33.589167,107.820556,1257,NA,11.8,NA,NA,1075,NA,"NAC","NAC","NAC","NAC",NA,NA,NA,NA,NA,NA,NA,NA,NA,NA,NA,13995,NA,"[Cook-Patton database citation, in ForC format]","R script by Valentine Herrmann",NA,NA,NA,NA,TRUE
2272,"Co Ma",NA,NA,NA,NA,"Son La Province","Vietnam",21.383333,103.633333,1300,NA,NA,NA,NA,1277,NA,"..21","NaN","NaN","NaN","Ferralic Acrilsols",NA,NA,NA,NA,NA,NA,NA,NA,NA,NA,297,NA,"[Cook-Patton database citation, in ForC format]","R script by Valentine Herrmann",NA,NA,NA,NA,TRUE
2273,"Ecological Benefits Monitoring Station",NA,NA,NA,NA,"Hunan Province","China",29.433333,111.216667,563,NA,16.7,NA,NA,1347,NA,"27.50.22","NaN","NaN","NaN","Cambisols",NA,NA,NA,NA,NA,NA,NA,NA,NA,NA,13972,NA,"[Cook-Patton database citation, in ForC format]","R script by Valentine Herrmann",NA,NA,NA,NA,TRUE
2274,"Palo Verde",NA,NA,NA,NA,"","Costa Rica",10.35,-85.35,NA,NA,25,NA,NA,1492,NA,"40.27.33","NaN","NaN","NaN","Ustropepts",NA,NA,NA,NA,NA,NA,NA,NA,NA,NA,36,NA,"[Cook-Patton database citation, in ForC format]","R script by Valentine Herrmann",NA,NA,NA,NA,TRUE
2275,"Santa Rosa",NA,NA,NA,NA,"Guanacaste","Costa Rica",10.84,-85.62,540,NA,25,NA,NA,1575,NA,"40.29.30","NaN","NaN","NaN","Ustropepts",NA,NA,NA,NA,NA,NA,NA,NA,NA,NA,37,NA,"[Cook-Patton database citation, in ForC format]","R script by Valentine Herrmann",NA,NA,NA,NA,TRUE
2276,"Bonanza Creek Experimental Forest",NA,NA,NA,NA,"Alaska","United States",64.8,-148,NA,NA,-2.9,NA,NA,289,NA,"NAC","NAC","NAC","NAC",NA,NA,NA,NA,NA,NA,NA,NA,NA,NA,NA,3892,NA,"[Cook-Patton database citation, in ForC format]","R script by Valentine Herrmann",NA,NA,NA,NA,TRUE
2277,"Valday 20",NA,NA,NA,NA,"","Russia",58.078056,33.325556,NA,NA,3.2,NA,NA,714,NA,"85.9.4","NaN","NaN","NaN",NA,NA,NA,NA,NA,NA,NA,NA,NA,NA,NA,3894,NA,"[Cook-Patton database citation, in ForC format]","R script by Valentine Herrmann",NA,NA,NA,NA,TRUE
2278,"Valday 55",NA,NA,NA,NA,"","Russia",58.081389,33.319444,NA,NA,3.2,NA,NA,714,NA,"90.6.2","NaN","NaN","NaN",NA,NA,NA,NA,NA,NA,NA,NA,NA,NA,NA,3895,NA,"[Cook-Patton database citation, in ForC format]","R script by Valentine Herrmann",NA,NA,NA,NA,TRUE
2279,"Valday 100",NA,NA,NA,NA,"","Russia",58.109167,33.320833,NA,NA,3.2,NA,NA,714,NA,"85.10.3","NaN","NaN","NaN",NA,NA,NA,NA,NA,NA,NA,NA,NA,NA,NA,3896,NA,"[Cook-Patton database citation, in ForC format]","R script by Valentine Herrmann",NA,NA,NA,NA,TRUE
2280,"Valday 3",NA,NA,NA,NA,"","Russia",58.273333,33.235556,NA,NA,3.2,NA,NA,714,NA,"90.7.2","NaN","NaN","NaN",NA,NA,NA,NA,NA,NA,NA,NA,NA,NA,NA,3893,NA,"[Cook-Patton database citation, in ForC format]","R script by Valentine Herrmann",NA,NA,NA,NA,TRUE
2281,"Tiantong National Forest Park",NA,NA,NA,NA,"Zhejiang Province","China",29.8,121.783333,200,NA,16.2,NA,NA,1375,NA,"heavy loam","NaN","NaN","NaN","red, yellow",NA,NA,NA,NA,NA,NA,NA,NA,NA,NA,2083,NA,"[Cook-Patton database citation, in ForC format]","R script by Valentine Herrmann",NA,NA,NA,NA,TRUE
2282,"Sierra de Cayey",NA,NA,NA,NA,"Puerto Rico","United States",18.016667,-66.083333,640,NA,21.5,NA,NA,2000,NA,"NAC","NAC","NAC","NAC","Hapludox",NA,NA,NA,NA,NA,NA,NA,NA,NA,NA,41,NA,"[Cook-Patton database citation, in ForC format]","R script by Valentine Herrmann",NA,NA,NA,NA,TRUE
2283,"Delta NF",NA,NA,NA,NA,"Mississippi","United States",32.880343,-90.787,NA,NA,NA,NA,NA,NA,NA,"NAC","NAC","NAC","NAC",NA,NA,NA,NA,NA,NA,NA,NA,NA,NA,NA,3649,NA,"[Cook-Patton database citation, in ForC format]","R script by Valentine Herrmann",NA,NA,NA,NA,TRUE
2284,"El Eden Ecological Reserve",NA,NA,NA,NA,"Yucatan Peninsula","Mexico",21.21,-87.182222,NA,NA,24.2,NA,NA,1650,NA,"NAC","NAC","NAC","NAC",NA,NA,NA,NA,NA,NA,NA,NA,NA,NA,NA,2073,NA,"[Cook-Patton database citation, in ForC format]","R script by Valentine Herrmann",NA,NA,NA,NA,TRUE
2285,"Aspen chronosequence RG",NA,NA,NA,NA,"Wisconsin","United States",45.89176,-90.11872,540,NA,3.9,NA,NA,896,NA,"NAC","NAC","NAC","NAC","spodosols",NA,NA,NA,NA,NA,NA,NA,NA,NA,NA,399,NA,"[Cook-Patton database citation, in ForC format]","R script by Valentine Herrmann",NA,NA,NA,NA,TRUE
2286,"Aspen chronosequence YA",NA,NA,NA,NA,"Wisconsin","United States",45.83322,-90.147173,540,NA,3.9,NA,NA,896,NA,"NAC","NAC","NAC","NAC","spodosols",NA,NA,NA,NA,NA,NA,NA,NA,NA,NA,3877,NA,"[Cook-Patton database citation, in ForC format]","R script by Valentine Herrmann",NA,NA,NA,NA,TRUE
2287,"Aspen chronosequence IA",NA,NA,NA,NA,"Wisconsin","United States",45.888083,-90.223483,540,NA,3.9,NA,NA,896,NA,"NAC","NAC","NAC","NAC","spodosols",NA,NA,NA,NA,NA,NA,NA,NA,NA,NA,3878,NA,"[Cook-Patton database citation, in ForC format]","R script by Valentine Herrmann",NA,NA,NA,NA,TRUE
2288,"Mature northern hardwood MH",NA,NA,NA,NA,"Wisconsin","United States",45.787825,-90.1159,540,NA,3.9,NA,NA,896,NA,"NAC","NAC","NAC","NAC","spodosols",NA,NA,NA,NA,NA,NA,NA,NA,NA,NA,14006,NA,"[Cook-Patton database citation, in ForC format]","R script by Valentine Herrmann",NA,NA,NA,NA,TRUE
2289,"Samboja",NA,NA,NA,NA,"East Kalimantan","Indonesia",-0.59,116.56,40,NA,NA,NA,NA,2400,NA,"sandy","NaN","NaN","NaN",NA,NA,NA,NA,NA,NA,NA,NA,NA,NA,NA,13968,NA,"[Cook-Patton database citation, in ForC format]","R script by Valentine Herrmann",NA,NA,NA,NA,TRUE
2290,"Guizhou Academy of Forestry",NA,NA,NA,NA,"Guizhou Province","China",26.8,106.75,1167,NA,12.8,NA,NA,1100,NA,"NAC","NAC","NAC","NAC","Ultisols",NA,NA,NA,NA,NA,NA,NA,NA,NA,NA,393,NA,"[Cook-Patton database citation, in ForC format]","R script by Valentine Herrmann",NA,NA,NA,NA,TRUE
2291,"Ecological Benefit Monitoring Station",NA,NA,NA,NA,"Hunan Province","China",27.083333,112.3,117,NA,17.9,NA,NA,1237,NA,"NAC","NAC","NAC","NAC","Udic Cambisol",NA,NA,NA,NA,NA,NA,NA,NA,NA,NA,3570,NA,"[Cook-Patton database citation, in ForC format]","R script by Valentine Herrmann",NA,NA,NA,NA,TRUE
2292,"C-2.6",NA,NA,NA,NA,"Sarapiqui","Costa Rica",10.6,-84.166667,195,NA,26,NA,NA,4000,NA,"NAC","NAC","NAC","NAC","Ultisol",NA,NA,NA,NA,NA,NA,NA,NA,NA,NA,414,NA,"[Cook-Patton database citation, in ForC format]","R script by Valentine Herrmann",NA,NA,NA,NA,TRUE
2293,"C-2.8",NA,NA,NA,NA,"Sarapiqui","Costa Rica",10.616667,-84.183333,195,NA,26,NA,NA,4000,NA,"NAC","NAC","NAC","NAC","Ultisol",NA,NA,NA,NA,NA,NA,NA,NA,NA,NA,415,NA,"[Cook-Patton database citation, in ForC format]","R script by Valentine Herrmann",NA,NA,NA,NA,TRUE
2294,"SF-33",NA,NA,NA,NA,"Sarapiqui","Costa Rica",10.65,-84.216667,195,NA,26,NA,NA,4000,NA,"NAC","NAC","NAC","NAC","Inceptisol",NA,NA,NA,NA,NA,NA,NA,NA,NA,NA,425,NA,"[Cook-Patton database citation, in ForC format]","R script by Valentine Herrmann",NA,NA,NA,NA,TRUE
2295,"SF-23",NA,NA,NA,NA,"Sarapiqui","Costa Rica",10.666667,-84.183333,195,NA,26,NA,NA,4000,NA,"NAC","NAC","NAC","NAC","Ultisol",NA,NA,NA,NA,NA,NA,NA,NA,NA,NA,423,NA,"[Cook-Patton database citation, in ForC format]","R script by Valentine Herrmann",NA,NA,NA,NA,TRUE
2296,"SF-20",NA,NA,NA,NA,"Sarapiqui","Costa Rica",10.683333,-84.05,195,NA,26,NA,NA,4000,NA,"NAC","NAC","NAC","NAC","Ultisol",NA,NA,NA,NA,NA,NA,NA,NA,NA,NA,421,NA,"[Cook-Patton database citation, in ForC format]","R script by Valentine Herrmann",NA,NA,NA,NA,TRUE
2297,"P1",NA,NA,NA,NA,"Sarapiqui","Costa Rica",10.7,-84.166667,195,NA,26,NA,NA,4000,NA,"NAC","NAC","NAC","NAC","Ultisol",NA,NA,NA,NA,NA,NA,NA,NA,NA,NA,13969,NA,"[Cook-Patton database citation, in ForC format]","R script by Valentine Herrmann",NA,NA,NA,NA,TRUE
2298,"P4",NA,NA,NA,NA,"Sarapiqui","Costa Rica",10.716667,-84.1,195,NA,26,NA,NA,4000,NA,"NAC","NAC","NAC","NAC","Ultisol",NA,NA,NA,NA,NA,NA,NA,NA,NA,NA,410,NA,"[Cook-Patton database citation, in ForC format]","R script by Valentine Herrmann",NA,NA,NA,NA,TRUE
2299,"SF-28",NA,NA,NA,NA,"Sarapiqui","Costa Rica",10.716667,-84.05,195,NA,26,NA,NA,4000,NA,"NAC","NAC","NAC","NAC","Ultisol",NA,NA,NA,NA,NA,NA,NA,NA,NA,NA,424,NA,"[Cook-Patton database citation, in ForC format]","R script by Valentine Herrmann",NA,NA,NA,NA,TRUE
2300,"P2",NA,NA,NA,NA,"Sarapiqui","Costa Rica",10.716667,-84.133333,195,NA,26,NA,NA,4000,NA,"NAC","NAC","NAC","NAC","Ultisol",NA,NA,NA,NA,NA,NA,NA,NA,NA,NA,13970,NA,"[Cook-Patton database citation, in ForC format]","R script by Valentine Herrmann",NA,NA,NA,NA,TRUE
2301,"SF-17",NA,NA,NA,NA,"Sarapiqui","Costa Rica",10.75,-84.116667,195,NA,26,NA,NA,4000,NA,"NAC","NAC","NAC","NAC","Ultisol",NA,NA,NA,NA,NA,NA,NA,NA,NA,NA,420,NA,"[Cook-Patton database citation, in ForC format]","R script by Valentine Herrmann",NA,NA,NA,NA,TRUE
2302,"SF-11/SF-22/P3",NA,NA,NA,NA,"Sarapiqui","Costa Rica",10.766667,-84.1,195,NA,26,NA,NA,4000,NA,"NAC","NAC","NAC","NAC","Ultisol",NA,NA,NA,NA,NA,NA,NA,NA,NA,NA,412,NA,"[Cook-Patton database citation, in ForC format]","R script by Valentine Herrmann",NA,NA,NA,NA,TRUE
2303,"SF-15",NA,NA,NA,NA,"Sarapiqui","Costa Rica",10.766667,-84.016667,195,NA,26,NA,NA,4000,NA,"NAC","NAC","NAC","NAC","Ultisol",NA,NA,NA,NA,NA,NA,NA,NA,NA,NA,419,NA,"[Cook-Patton database citation, in ForC format]","R script by Valentine Herrmann",NA,NA,NA,NA,TRUE
2304,"C-7",NA,NA,NA,NA,"Sarapiqui","Costa Rica",10.783333,-84.1,195,NA,26,NA,NA,4000,NA,"NAC","NAC","NAC","NAC","Ultisol",NA,NA,NA,NA,NA,NA,NA,NA,NA,NA,416,NA,"[Cook-Patton database citation, in ForC format]","R script by Valentine Herrmann",NA,NA,NA,NA,TRUE
2305,"SF-8",NA,NA,NA,NA,"Sarapiqui","Costa Rica",10.783333,-84.083333,195,NA,26,NA,NA,4000,NA,"NAC","NAC","NAC","NAC","Ultisol",NA,NA,NA,NA,NA,NA,NA,NA,NA,NA,417,NA,"[Cook-Patton database citation, in ForC format]","R script by Valentine Herrmann",NA,NA,NA,NA,TRUE
2306,"N'hambita",NA,NA,NA,NA,"Sofala Province","Mozambique",-18.978889,34.176944,NA,NA,NA,NA,NA,690,NA,"sandy loam, sandy silt laom","NaN","NaN","NaN",NA,NA,NA,NA,NA,NA,NA,NA,NA,NA,NA,2086,NA,"[Cook-Patton database citation, in ForC format]","R script by Valentine Herrmann",NA,NA,NA,NA,TRUE
2307,"Acacia mangium plantation",NA,NA,NA,NA,"Sumatra","Indonesia",-3.5,103.75,130,NA,29,NA,NA,2520,NA,"NAC","NAC","NAC","NAC","acrisols",NA,NA,NA,NA,NA,NA,NA,NA,NA,NA,3741,NA,"[Cook-Patton database citation, in ForC format]","R script by Valentine Herrmann",NA,NA,NA,NA,TRUE
2308,"Universidade Federal Rural da Amazonia",NA,NA,NA,NA,"Para","Brazil",-1.316667,-47.95,NA,NA,NA,NA,NA,2740,NA,"1/3/1900  2.06.20 AM","NaN","NaN","NaN","Latosol",NA,NA,NA,NA,NA,NA,NA,NA,NA,NA,398,NA,"[Cook-Patton database citation, in ForC format]","R script by Valentine Herrmann",NA,NA,NA,NA,TRUE
2309,"Hallormsstardu",NA,NA,NA,NA,"","Iceland",65.083333,-14.733333,NA,NA,3.4,NA,NA,735,NA,"NAC","NAC","NAC","NAC","Andosols",NA,NA,NA,NA,NA,NA,NA,NA,NA,NA,3501,NA,"[Cook-Patton database citation, in ForC format]","R script by Valentine Herrmann",NA,NA,NA,NA,TRUE
2310,"Ipetí–Emberá",NA,NA,NA,NA,"Panama Province","Panama",8.958333,-78.533333,175,NA,25,NA,NA,2250,NA,"NAC","NAC","NAC","NAC","Ultisols, Alfisols",NA,NA,NA,NA,NA,NA,NA,NA,NA,NA,238,NA,"[Cook-Patton database citation, in ForC format]","R script by Valentine Herrmann",NA,NA,NA,NA,TRUE
2311,"La Palma",NA,NA,NA,NA,"Canary Islands","Spain",28.566817,-17.844876,1100,NA,13.6,NA,NA,960,NA,"NAC","NAC","NAC","NAC","Andisols",NA,NA,NA,NA,NA,NA,NA,NA,NA,NA,444,NA,"[Cook-Patton database citation, in ForC format]","R script by Valentine Herrmann",NA,NA,NA,NA,TRUE
2312,"Bukit Soeharto Education Forest",NA,NA,NA,NA,"East Kalimantan","Indonesia",-0.866667,117.016667,55,NA,NA,NA,NA,2000,NA,"NAC","NAC","NAC","NAC","ultisols",NA,NA,NA,NA,NA,NA,NA,NA,NA,NA,2304,NA,"[Cook-Patton database citation, in ForC format]","R script by Valentine Herrmann",NA,NA,NA,NA,TRUE
2313,"Val Canali",NA,NA,NA,NA,"Southern Alps","Italy",46.2,11.833333,1325,NA,6.2,NA,NA,1466,NA,"NAC","NAC","NAC","NAC","Cambisol",NA,NA,NA,NA,NA,NA,NA,NA,NA,NA,3683,NA,"[Cook-Patton database citation, in ForC format]","R script by Valentine Herrmann",NA,NA,NA,NA,TRUE
2314,"Valsorda",NA,NA,NA,NA,"Southern Alps","Italy",46.216667,11.7,1295,NA,5.9,NA,NA,1350,NA,"NAC","NAC","NAC","NAC","Cambisol",NA,NA,NA,NA,NA,NA,NA,NA,NA,NA,3566,NA,"[Cook-Patton database citation, in ForC format]","R script by Valentine Herrmann",NA,NA,NA,NA,TRUE
2315,"Kienberg",NA,NA,NA,NA,"Central Alps","Italy",46.783333,11.85,1175,NA,5.8,NA,NA,815,NA,"NAC","NAC","NAC","NAC","Cambisol",NA,NA,NA,NA,NA,NA,NA,NA,NA,NA,3686,NA,"[Cook-Patton database citation, in ForC format]","R script by Valentine Herrmann",NA,NA,NA,NA,TRUE
2316,"Aiarei",NA,NA,NA,NA,"Central Alps","Italy",46.8,11.883333,1737,NA,4.1,NA,NA,970,NA,"NAC","NAC","NAC","NAC","Cambisol, Luvisol",NA,NA,NA,NA,NA,NA,NA,NA,NA,NA,3695,NA,"[Cook-Patton database citation, in ForC format]","R script by Valentine Herrmann",NA,NA,NA,NA,TRUE
2317,"Vilstal",NA,NA,NA,NA,"Northern Alps","Germany",47.583333,10.5,1087,NA,6.8,NA,NA,1370,NA,"NAC","NAC","NAC","NAC","Cambisol",NA,NA,NA,NA,NA,NA,NA,NA,NA,NA,3784,NA,"[Cook-Patton database citation, in ForC format]","R script by Valentine Herrmann",NA,NA,NA,NA,TRUE
2318,"eastern Iceland",NA,NA,NA,NA,"","Iceland",65.208333,-15.15,75,NA,3.4,NA,NA,738,NA,"NAC","NAC","NAC","NAC","Andosols",NA,NA,NA,NA,NA,NA,NA,NA,NA,NA,3897,NA,"[Cook-Patton database citation, in ForC format]","R script by Valentine Herrmann",NA,NA,NA,NA,TRUE
2319,"Providencia",NA,NA,NA,NA,"","Colombia",13.352785,-81.370759,183,NA,27.6,NA,NA,1584,NA,"NAC","NAC","NAC","NAC",NA,NA,NA,NA,NA,NA,NA,NA,NA,NA,NA,42,NA,"[Cook-Patton database citation, in ForC format]","R script by Valentine Herrmann",NA,NA,NA,NA,TRUE
2320,"Lynes Creek",NA,NA,NA,NA,"British Columbia","Canada",52.323056,-122.105,NA,NA,3.4,NA,NA,460,NA,"NAC","NAC","NAC","NAC","Orthic Dystric Brunisol",NA,NA,NA,NA,NA,NA,NA,NA,NA,NA,3557,NA,"[Cook-Patton database citation, in ForC format]","R script by Valentine Herrmann",NA,NA,NA,NA,TRUE
2321,"Tapajos National Park",NA,NA,NA,NA,"Para","Brazil",-3.19,-54.93,NA,NA,26,NA,NA,1775,NA,"NAC","NAC","NAC","NAC",NA,NA,NA,NA,NA,NA,NA,NA,NA,NA,NA,2165,NA,"[Cook-Patton database citation, in ForC format]","R script by Valentine Herrmann",NA,NA,NA,NA,TRUE
2322,"Manaus",NA,NA,NA,NA,"Amazonas","Brazil",-3,-60,135,NA,26.7,NA,NA,2180,NA,"NAC","NAC","NAC","NAC","Oxisols",NA,NA,NA,NA,NA,NA,NA,NA,NA,NA,291,NA,"[Cook-Patton database citation, in ForC format]","R script by Valentine Herrmann",NA,NA,NA,NA,TRUE
2323,"Yotao I",NA,NA,NA,NA,"Oaxaca","Mexico",17.372112,-96.340678,1850,NA,21,NA,NA,1719,NA,"NAC","NAC","NAC","NAC","Entisols",NA,NA,NA,NA,NA,NA,NA,NA,NA,NA,2318,NA,"[Cook-Patton database citation, in ForC format]","R script by Valentine Herrmann",NA,NA,NA,NA,TRUE
2324,"Yotao II",NA,NA,NA,NA,"Oaxaca","Mexico",17.372246,-96.346965,1850,NA,21,NA,NA,1719,NA,"NAC","NAC","NAC","NAC","Inceptisols",NA,NA,NA,NA,NA,NA,NA,NA,NA,NA,3879,NA,"[Cook-Patton database citation, in ForC format]","R script by Valentine Herrmann",NA,NA,NA,NA,TRUE
2325,"Juquila I",NA,NA,NA,NA,"Oaxaca","Mexico",17.343912,-96.293467,1850,NA,21,NA,NA,1719,NA,"NAC","NAC","NAC","NAC","Entisols",NA,NA,NA,NA,NA,NA,NA,NA,NA,NA,3880,NA,"[Cook-Patton database citation, in ForC format]","R script by Valentine Herrmann",NA,NA,NA,NA,TRUE
2326,"Juquila II",NA,NA,NA,NA,"Oaxaca","Mexico",17.343654,-96.287935,1850,NA,21,NA,NA,1719,NA,"NAC","NAC","NAC","NAC","Inceptisols",NA,NA,NA,NA,NA,NA,NA,NA,NA,NA,3881,NA,"[Cook-Patton database citation, in ForC format]","R script by Valentine Herrmann",NA,NA,NA,NA,TRUE
2327,"Tanetze I",NA,NA,NA,NA,"Oaxaca","Mexico",17.360589,-96.268276,1850,NA,21,NA,NA,1719,NA,"NAC","NAC","NAC","NAC","Entisols",NA,NA,NA,NA,NA,NA,NA,NA,NA,NA,3882,NA,"[Cook-Patton database citation, in ForC format]","R script by Valentine Herrmann",NA,NA,NA,NA,TRUE
2328,"Tanetze II",NA,NA,NA,NA,"Oaxaca","Mexico",17.359838,-96.27029,1850,NA,21,NA,NA,1719,NA,"NAC","NAC","NAC","NAC","Inceptisols",NA,NA,NA,NA,NA,NA,NA,NA,NA,NA,3883,NA,"[Cook-Patton database citation, in ForC format]","R script by Valentine Herrmann",NA,NA,NA,NA,TRUE
2329,"Yotao III",NA,NA,NA,NA,"Oaxaca","Mexico",17.333056,-96.350927,1850,NA,21,NA,NA,1719,NA,"NAC","NAC","NAC","NAC","Inceptisols",NA,NA,NA,NA,NA,NA,NA,NA,NA,NA,13996,NA,"[Cook-Patton database citation, in ForC format]","R script by Valentine Herrmann",NA,NA,NA,NA,TRUE
2330,"Yotao VI",NA,NA,NA,NA,"Oaxaca","Mexico",17.33577,-96.365886,1850,NA,21,NA,NA,1719,NA,"NAC","NAC","NAC","NAC","Inceptisols",NA,NA,NA,NA,NA,NA,NA,NA,NA,NA,13997,NA,"[Cook-Patton database citation, in ForC format]","R script by Valentine Herrmann",NA,NA,NA,NA,TRUE
2331,"Yotao V",NA,NA,NA,NA,"Oaxaca","Mexico",17.334252,-96.358124,1850,NA,21,NA,NA,1719,NA,"NAC","NAC","NAC","NAC","Inceptisols",NA,NA,NA,NA,NA,NA,NA,NA,NA,NA,13998,NA,"[Cook-Patton database citation, in ForC format]","R script by Valentine Herrmann",NA,NA,NA,NA,TRUE
2332,"Juquila III",NA,NA,NA,NA,"Oaxaca","Mexico",17.362985,-96.286695,1850,NA,21,NA,NA,1719,NA,"NAC","NAC","NAC","NAC","Inceptisols",NA,NA,NA,NA,NA,NA,NA,NA,NA,NA,13999,NA,"[Cook-Patton database citation, in ForC format]","R script by Valentine Herrmann",NA,NA,NA,NA,TRUE
2333,"Juquila IV",NA,NA,NA,NA,"Oaxaca","Mexico",17.364844,-96.287587,1850,NA,21,NA,NA,1719,NA,"NAC","NAC","NAC","NAC","Inceptisols",NA,NA,NA,NA,NA,NA,NA,NA,NA,NA,14000,NA,"[Cook-Patton database citation, in ForC format]","R script by Valentine Herrmann",NA,NA,NA,NA,TRUE
2334,"Juquila V",NA,NA,NA,NA,"Oaxaca","Mexico",17.369535,-96.287997,1850,NA,21,NA,NA,1719,NA,"NAC","NAC","NAC","NAC","Inceptisols",NA,NA,NA,NA,NA,NA,NA,NA,NA,NA,14001,NA,"[Cook-Patton database citation, in ForC format]","R script by Valentine Herrmann",NA,NA,NA,NA,TRUE
2335,"Tanetze III",NA,NA,NA,NA,"Oaxaca","Mexico",17.339965,-96.270984,1850,NA,21,NA,NA,1719,NA,"NAC","NAC","NAC","NAC","Inceptisols",NA,NA,NA,NA,NA,NA,NA,NA,NA,NA,14002,NA,"[Cook-Patton database citation, in ForC format]","R script by Valentine Herrmann",NA,NA,NA,NA,TRUE
2336,"Tanetze VI",NA,NA,NA,NA,"Oaxaca","Mexico",17.333483,-96.275018,1850,NA,21,NA,NA,1719,NA,"NAC","NAC","NAC","NAC","Inceptisols",NA,NA,NA,NA,NA,NA,NA,NA,NA,NA,14003,NA,"[Cook-Patton database citation, in ForC format]","R script by Valentine Herrmann",NA,NA,NA,NA,TRUE
2337,"Tanetze V",NA,NA,NA,NA,"Oaxaca","Mexico",17.335343,-96.275101,1850,NA,21,NA,NA,1719,NA,"NAC","NAC","NAC","NAC","Inceptisols",NA,NA,NA,NA,NA,NA,NA,NA,NA,NA,14004,NA,"[Cook-Patton database citation, in ForC format]","R script by Valentine Herrmann",NA,NA,NA,NA,TRUE
2338,"Cuicateca",NA,NA,NA,NA,"","Mexico",17.016667,-95.9,1950,NA,NA,NA,NA,774,NA,"NAC","NAC","NAC","NAC","luvisols",NA,NA,NA,NA,NA,NA,NA,NA,NA,NA,13957,NA,"[Cook-Patton database citation, in ForC format]","R script by Valentine Herrmann",NA,NA,NA,NA,TRUE
2339,"Mixe",NA,NA,NA,NA,"","Mexico",17.016667,-95.9,1400,NA,NA,NA,NA,1974,NA,"NAC","NAC","NAC","NAC","acrisols",NA,NA,NA,NA,NA,NA,NA,NA,NA,NA,3582,NA,"[Cook-Patton database citation, in ForC format]","R script by Valentine Herrmann",NA,NA,NA,NA,TRUE
2340,"Mazateca",NA,NA,NA,NA,"","Mexico",18.15,-96.9,1605,NA,NA,NA,NA,1474,NA,"NAC","NAC","NAC","NAC","acrisols",NA,NA,NA,NA,NA,NA,NA,NA,NA,NA,13956,NA,"[Cook-Patton database citation, in ForC format]","R script by Valentine Herrmann",NA,NA,NA,NA,TRUE
2341,"Kellogg Biological Station",NA,NA,NA,NA,"Michigan","United States",42.4,-85.4,288,NA,9.7,NA,NA,890,NA,"NAC","NAC","NAC","NAC","alfisols",NA,NA,NA,NA,NA,NA,NA,NA,NA,NA,3802,NA,"[Cook-Patton database citation, in ForC format]","R script by Valentine Herrmann",NA,NA,NA,NA,TRUE
2342,"PZ Secfor 12a/18",NA,NA,NA,NA,"Acre","Brazil",-9.949722,-67.871667,NA,NA,26,NA,NA,1940,NA,"NAC","NAC","NAC","NAC","ultisols, oxisols",NA,NA,NA,NA,NA,NA,NA,NA,NA,NA,14005,NA,"[Cook-Patton database citation, in ForC format]","R script by Valentine Herrmann",NA,NA,NA,NA,TRUE
2343,"PZ Secfor 11",NA,NA,NA,NA,"Acre","Brazil",-9.875833,-67.071667,NA,NA,26,NA,NA,1940,NA,"NAC","NAC","NAC","NAC","ultisols, oxisols",NA,NA,NA,NA,NA,NA,NA,NA,NA,NA,2002,NA,"[Cook-Patton database citation, in ForC format]","R script by Valentine Herrmann",NA,NA,NA,NA,TRUE
2344,"Peixoto 1 Secfor 3a",NA,NA,NA,NA,"Acre","Brazil",-9.875,-67.074167,NA,NA,26,NA,NA,1940,NA,"..50","NaN","NaN","NaN","ultisols, oxisols",NA,NA,NA,NA,NA,NA,NA,NA,NA,NA,2003,NA,"[Cook-Patton database citation, in ForC format]","R script by Valentine Herrmann",NA,NA,NA,NA,TRUE
2345,"PZ Pasture 13",NA,NA,NA,NA,"Acre","Brazil",-9.874444,-67.071944,NA,NA,26,NA,NA,1940,NA,"NAC","NAC","NAC","NAC","ultisols, oxisols",NA,NA,NA,NA,NA,NA,NA,NA,NA,NA,2001,NA,"[Cook-Patton database citation, in ForC format]","R script by Valentine Herrmann",NA,NA,NA,NA,TRUE
2346,"Humaita 1 Secfor 3c",NA,NA,NA,NA,"Acre","Brazil",-9.770833,-67.657778,NA,NA,26,NA,NA,1940,NA,"..40","NaN","NaN","NaN","ultisols, oxisols",NA,NA,NA,NA,NA,NA,NA,NA,NA,NA,2010,NA,"[Cook-Patton database citation, in ForC format]","R script by Valentine Herrmann",NA,NA,NA,NA,TRUE
2347,"Humaita 2 Pasture 14",NA,NA,NA,NA,"Acre","Brazil",-9.770278,-67.658056,NA,NA,26,NA,NA,1940,NA,"NAC","NAC","NAC","NAC","ultisols, oxisols",NA,NA,NA,NA,NA,NA,NA,NA,NA,NA,2009,NA,"[Cook-Patton database citation, in ForC format]","R script by Valentine Herrmann",NA,NA,NA,NA,TRUE
2348,"Ponderosa Pine",NA,NA,NA,NA,"Oregon","United States",44.433333,-121.566667,1188,NA,7.5,NA,NA,552,NA,"65.25.10","NaN","NaN","NaN","Andisols",NA,NA,NA,NA,NA,NA,NA,NA,NA,NA,2250,NA,"[Cook-Patton database citation, in ForC format]","R script by Valentine Herrmann",NA,NA,NA,NA,TRUE
2349,"Old Mill",NA,NA,NA,NA,"Victoria","Australia",-30.033333,146.25,615,NA,NA,NA,NA,1900,NA,"NAC","NAC","NAC","NAC","alfisols",NA,NA,NA,NA,NA,NA,NA,NA,NA,NA,2117,NA,"[Cook-Patton database citation, in ForC format]","R script by Valentine Herrmann",NA,NA,NA,NA,TRUE
2350,"Dzibilchaltun",NA,NA,NA,NA,"Yucatan Peninsula","Mexico",21.1,-89.283333,10,NA,25.8,NA,NA,760,NA,"NAC","NAC","NAC","NAC","lithic rendolls",NA,NA,NA,NA,NA,NA,NA,NA,NA,NA,426,NA,"[Cook-Patton database citation, in ForC format]","R script by Valentine Herrmann",NA,NA,NA,NA,TRUE
2351,"Akok",NA,NA,NA,NA,"","Cameroon",2.784167,10.282778,NA,NA,NA,NA,NA,1513,NA,"NAC","NAC","NAC","NAC","ultisols",NA,NA,NA,NA,NA,NA,NA,NA,NA,NA,2137,NA,"[Cook-Patton database citation, in ForC format]","R script by Valentine Herrmann",NA,NA,NA,NA,TRUE
2352,"Xishuangbanna Tropical Botanical Garden",NA,NA,NA,NA,NA,"China",21.7,101.25,855,NA,22.1,NA,NA,1400,NA,"NAC","NAC","NAC","NAC","Udic Ferrisols",NA,NA,NA,NA,NA,NA,NA,NA,NA,NA,3659,NA,"[Cook-Patton database citation, in ForC format]","R script by Valentine Herrmann",NA,NA,NA,NA,TRUE
2353,"Changbai Mountain Natural Reserve",NA,NA,NA,NA,NA,"China",42.4,128.083333,1000,NA,-2,NA,NA,1050,NA,"NAC","NAC","NAC","NAC",NA,NA,NA,NA,NA,NA,NA,NA,NA,NA,NA,3810,NA,"[Cook-Patton database citation, in ForC format]","R script by Valentine Herrmann",NA,NA,NA,NA,TRUE
2354,"El Tigre",NA,NA,NA,NA,"","Bolivia",-11.983333,-65.716667,NA,NA,NA,NA,NA,1780,NA,"NAC","NAC","NAC","NAC",NA,NA,NA,NA,NA,NA,NA,NA,NA,NA,NA,43,NA,"[Cook-Patton database citation, in ForC format]","R script by Valentine Herrmann",NA,NA,NA,NA,TRUE
2355,"El Turi",NA,NA,NA,NA,"","Bolivia",-11.75,-67.333333,NA,NA,NA,NA,NA,1833,NA,"NAC","NAC","NAC","NAC",NA,NA,NA,NA,NA,NA,NA,NA,NA,NA,NA,44,NA,"[Cook-Patton database citation, in ForC format]","R script by Valentine Herrmann",NA,NA,NA,NA,TRUE
2356,"Eucalyptus regnans sites",NA,NA,NA,NA,"","Australia",-37.491667,145.483333,710,NA,NA,NA,NA,1210,NA,"NAC","NAC","NAC","NAC","Ferrosols",NA,NA,NA,NA,NA,NA,NA,NA,NA,NA,3594,NA,"[Cook-Patton database citation, in ForC format]","R script by Valentine Herrmann",NA,NA,NA,NA,TRUE
2357,"Eastern Para 1",NA,NA,NA,NA,"Para","Brazil",-4.26,-47.73,NA,NA,26,NA,NA,2200,NA,"NAC","NAC","NAC","NAC",NA,NA,NA,NA,NA,NA,NA,NA,NA,NA,NA,46,NA,"[Cook-Patton database citation, in ForC format]","R script by Valentine Herrmann",NA,NA,NA,NA,TRUE
2358,"Eastern Para 2",NA,NA,NA,NA,"Para","Brazil",-2.16,-47.38,NA,NA,26,NA,NA,2200,NA,"NAC","NAC","NAC","NAC",NA,NA,NA,NA,NA,NA,NA,NA,NA,NA,NA,47,NA,"[Cook-Patton database citation, in ForC format]","R script by Valentine Herrmann",NA,NA,NA,NA,TRUE
2359,"Eastern Para 3",NA,NA,NA,NA,"Para","Brazil",-1.17,-47.75,NA,NA,26,NA,NA,2200,NA,"NAC","NAC","NAC","NAC",NA,NA,NA,NA,NA,NA,NA,NA,NA,NA,NA,48,NA,"[Cook-Patton database citation, in ForC format]","R script by Valentine Herrmann",NA,NA,NA,NA,TRUE
2360,"Bragantina",NA,NA,NA,NA,"Para","Brazil",-1.2,-47.258333,NA,NA,25.5,NA,NA,2300,NA,"sandy","NaN","NaN","NaN","Oxisols",NA,NA,NA,NA,NA,NA,NA,NA,NA,NA,2259,NA,"[Cook-Patton database citation, in ForC format]","R script by Valentine Herrmann",NA,NA,NA,NA,TRUE
2361,"Jharsuguda",NA,NA,NA,NA,"Odisha","India",22,84,165,NA,NA,NA,NA,1956,NA,"NAC","NAC","NAC","NAC","Ultisols",NA,NA,NA,NA,NA,NA,NA,NA,NA,NA,3812,NA,"[Cook-Patton database citation, in ForC format]","R script by Valentine Herrmann",NA,NA,NA,NA,TRUE
2362,"Lewis Canyon North/South",NA,NA,NA,NA,"Wyoming","United States",44.155556,-110.658889,2368,NA,NA,NA,NA,465,NA,"NAC","NAC","NAC","NAC","Cryochrept/Cryumbrept",NA,NA,NA,NA,NA,NA,NA,NA,NA,NA,2218,NA,"[Cook-Patton database citation, in ForC format]","R script by Valentine Herrmann",NA,NA,NA,NA,TRUE
2363,"Pitchstone Plateau",NA,NA,NA,NA,"Wyoming","United States",44.253056,-110.772222,2368,NA,NA,NA,NA,465,NA,"sandy loam","NaN","NaN","NaN","Cryochrept/Cryumbrept",NA,NA,NA,NA,NA,NA,NA,NA,NA,NA,2220,NA,"[Cook-Patton database citation, in ForC format]","R script by Valentine Herrmann",NA,NA,NA,NA,TRUE
2364,"Riddle High",NA,NA,NA,NA,"Wyoming","United States",44.3525,-110.544444,2417,NA,NA,NA,NA,465,NA,"sandy loam","NaN","NaN","NaN","Cryochrept/Cryumbrept",NA,NA,NA,NA,NA,NA,NA,NA,NA,NA,2224,NA,"[Cook-Patton database citation, in ForC format]","R script by Valentine Herrmann",NA,NA,NA,NA,TRUE
2365,"Riddle Lake",NA,NA,NA,NA,"Wyoming","United States",44.356944,-110.541667,2429,NA,NA,NA,NA,465,NA,"sandy loam","NaN","NaN","NaN","Cryochrept/Cryumbrept",NA,NA,NA,NA,NA,NA,NA,NA,NA,NA,2221,NA,"[Cook-Patton database citation, in ForC format]","R script by Valentine Herrmann",NA,NA,NA,NA,TRUE
2366,"Howard Eaton",NA,NA,NA,NA,"Wyoming","United States",44.453889,-110.829444,2370,NA,NA,NA,NA,465,NA,"loamy sand","NaN","NaN","NaN","Cryochrept/Cryumbrept",NA,NA,NA,NA,NA,NA,NA,NA,NA,NA,2223,NA,"[Cook-Patton database citation, in ForC format]","R script by Valentine Herrmann",NA,NA,NA,NA,TRUE
2367,"Biscuit Basin",NA,NA,NA,NA,"Wyoming","United States",44.485278,-110.8525,2223,NA,NA,NA,NA,465,NA,"sandy loam","NaN","NaN","NaN","Cryochrept/Cryumbrept",NA,NA,NA,NA,NA,NA,NA,NA,NA,NA,2222,NA,"[Cook-Patton database citation, in ForC format]","R script by Valentine Herrmann",NA,NA,NA,NA,TRUE
2368,"Firehole Loop",NA,NA,NA,NA,"Wyoming","United States",44.630556,-110.864722,2166,NA,NA,NA,NA,465,NA,"sandy loam","NaN","NaN","NaN","Cryochrept/Cryumbrept",NA,NA,NA,NA,NA,NA,NA,NA,NA,NA,2225,NA,"[Cook-Patton database citation, in ForC format]","R script by Valentine Herrmann",NA,NA,NA,NA,TRUE
2369,"Gibbon Falls",NA,NA,NA,NA,"Wyoming","United States",44.654167,-110.771389,2131,NA,NA,NA,NA,465,NA,"sandy loam","NaN","NaN","NaN","Cryochrept/Cryumbrept",NA,NA,NA,NA,NA,NA,NA,NA,NA,NA,2226,NA,"[Cook-Patton database citation, in ForC format]","R script by Valentine Herrmann",NA,NA,NA,NA,TRUE
2370,"Cygnet Lakes",NA,NA,NA,NA,"Wyoming","United States",44.662778,-110.616667,2508,NA,NA,NA,NA,465,NA,"sandy loam","NaN","NaN","NaN","Cryochrept/Cryumbrept",NA,NA,NA,NA,NA,NA,NA,NA,NA,NA,2219,NA,"[Cook-Patton database citation, in ForC format]","R script by Valentine Herrmann",NA,NA,NA,NA,TRUE
2371,"7-Mile Bridge",NA,NA,NA,NA,"Wyoming","United States",44.669444,-110.970278,2076,NA,NA,NA,NA,465,NA,"sandy loam","NaN","NaN","NaN","Cryochrept/Cryumbrept",NA,NA,NA,NA,NA,NA,NA,NA,NA,NA,2227,NA,"[Cook-Patton database citation, in ForC format]","R script by Valentine Herrmann",NA,NA,NA,NA,TRUE
2372,"Cascade Meadows",NA,NA,NA,NA,"Wyoming","United States",44.735556,-110.508333,2486,NA,NA,NA,NA,465,NA,"sandy loam","NaN","NaN","NaN","Cryochrept/Cryumbrept",NA,NA,NA,NA,NA,NA,NA,NA,NA,NA,2217,NA,"[Cook-Patton database citation, in ForC format]","R script by Valentine Herrmann",NA,NA,NA,NA,TRUE
2373,"southern Yucatan",NA,NA,NA,NA,"Campeche","Mexico",18.383333,-89.2,183,NA,25,NA,NA,1141,NA,"38.34.28","NaN","NaN","NaN",NA,NA,NA,NA,NA,NA,NA,NA,NA,NA,NA,293,NA,"[Cook-Patton database citation, in ForC format]","R script by Valentine Herrmann",NA,NA,NA,NA,TRUE
2374,"Northern Chiloe Island",NA,NA,NA,NA,"Chiloe Island","Chile",-41.833333,-73.637681,75,NA,NA,NA,NA,5000,NA,"NAC","NAC","NAC","NAC",NA,NA,NA,NA,NA,NA,NA,NA,NA,NA,NA,2509,NA,"[Cook-Patton database citation, in ForC format]","R script by Valentine Herrmann",NA,NA,NA,NA,TRUE
2375,"Oyacachi",NA,NA,NA,NA,"Napo","Ecuador",-0.216667,-78.05,3200,NA,10.5,NA,NA,2250,NA,"NAC","NAC","NAC","NAC","Andosol",NA,NA,NA,NA,NA,NA,NA,NA,NA,NA,289,NA,"[Cook-Patton database citation, in ForC format]","R script by Valentine Herrmann",NA,NA,NA,NA,TRUE
2376,"Embrapa Amazonia Ocidental",NA,NA,NA,NA,"Amazonas","Brazil",-2.892778,-59.971944,NA,NA,26,NA,NA,2600,NA,"NAC","NAC","NAC","NAC","Ferralsols",NA,NA,NA,NA,NA,NA,NA,NA,NA,NA,3537,NA,"[Cook-Patton database citation, in ForC format]","R script by Valentine Herrmann",NA,NA,NA,NA,TRUE
2377,"High Casamance",NA,NA,NA,NA,"","Senegal",12.816667,-14.883333,NA,NA,28,NA,NA,960,NA,"NAC","NAC","NAC","NAC",NA,NA,NA,NA,NA,NA,NA,NA,NA,NA,NA,3661,NA,"[Cook-Patton database citation, in ForC format]","R script by Valentine Herrmann",NA,NA,NA,NA,TRUE
2378,"San Lorenzo",NA,NA,NA,NA,"Nuflo de Chavez","Bolivia",-16.75,-61.75,500,NA,24.3,NA,NA,1129,NA,"NAC","NAC","NAC","NAC","Inceptisols, Oxisols",NA,NA,NA,NA,NA,NA,NA,NA,NA,NA,49,NA,"[Cook-Patton database citation, in ForC format]","R script by Valentine Herrmann",NA,NA,NA,NA,TRUE
2379,"Mathieu",NA,NA,NA,NA,"Quebec","Canada",48.841667,-74.708333,NA,NA,0.8,NA,NA,950,NA,"80.13.7","NaN","NaN","NaN","Ferro-humic podzols",NA,NA,NA,NA,NA,NA,NA,NA,NA,NA,3899,NA,"[Cook-Patton database citation, in ForC format]","R script by Valentine Herrmann",NA,NA,NA,NA,TRUE
2380,"St-Pere",NA,NA,NA,NA,"Quebec","Canada",48.858333,-76.383333,NA,NA,1.2,NA,NA,840,NA,"80.13.7","NaN","NaN","NaN","Brunisols",NA,NA,NA,NA,NA,NA,NA,NA,NA,NA,3898,NA,"[Cook-Patton database citation, in ForC format]","R script by Valentine Herrmann",NA,NA,NA,NA,TRUE
2381,"Dieppe",NA,NA,NA,NA,"Quebec","Canada",49.566667,-79.175,NA,NA,0.6,NA,NA,820,NA,"48.25.27","NaN","NaN","NaN","Ferro-humic podzols",NA,NA,NA,NA,NA,NA,NA,NA,NA,NA,3900,NA,"[Cook-Patton database citation, in ForC format]","R script by Valentine Herrmann",NA,NA,NA,NA,TRUE
2382,"Ciales",NA,NA,NA,NA,"Puerto Rico","United States",18.060881,-66.050224,195,NA,NA,NA,NA,2074,NA,"NAC","NAC","NAC","NAC",NA,NA,NA,NA,NA,NA,NA,NA,NA,NA,NA,3509,NA,"[Cook-Patton database citation, in ForC format]","R script by Valentine Herrmann",NA,NA,NA,NA,TRUE
2383,"El Carite",NA,NA,NA,NA,"Puerto Rico","United States",18.08,-66.07,505,NA,NA,NA,NA,2030,NA,"NAC","NAC","NAC","NAC",NA,NA,NA,NA,NA,NA,NA,NA,NA,NA,NA,51,NA,"[Cook-Patton database citation, in ForC format]","R script by Valentine Herrmann",NA,NA,NA,NA,TRUE
2384,"Utuado",NA,NA,NA,NA,"Puerto Rico","United States",18.250006,-66.631817,250,NA,NA,NA,NA,3000,NA,"NAC","NAC","NAC","NAC",NA,NA,NA,NA,NA,NA,NA,NA,NA,NA,NA,3699,NA,"[Cook-Patton database citation, in ForC format]","R script by Valentine Herrmann",NA,NA,NA,NA,TRUE
2385,"Pen Branch/Fourmile Branch",NA,NA,NA,NA,"South Carolina","United States",33.161944,-81.739444,NA,NA,NA,NA,NA,NA,NA,"NAC","NAC","NAC","NAC",NA,NA,NA,NA,NA,NA,NA,NA,NA,NA,NA,3781,NA,"[Cook-Patton database citation, in ForC format]","R script by Valentine Herrmann",NA,NA,NA,NA,TRUE
2386,"AM10/Janauaca",NA,NA,NA,NA,"Amazonas","Brazil",-3,-60,NA,NA,25.6,NA,NA,2100,NA,"NAC","NAC","NAC","NAC","Oxisols, Podsols",NA,NA,NA,NA,NA,NA,NA,NA,NA,NA,55,NA,"[Cook-Patton database citation, in ForC format]","R script by Valentine Herrmann",NA,NA,NA,NA,TRUE
2387,"Tongariro National Park",NA,NA,NA,NA,"North Island","New Zealand",-39.083333,175.75,800,NA,11.1,NA,NA,1610,NA,"NAC","NAC","NAC","NAC","Andisols",NA,NA,NA,NA,NA,NA,NA,NA,NA,NA,2145,NA,"[Cook-Patton database citation, in ForC format]","R script by Valentine Herrmann",NA,NA,NA,NA,TRUE
2388,"Fazenda Experimental Catuaba",NA,NA,NA,NA,"Acre","Brazil",-10.066667,-67.616667,NA,NA,26,NA,NA,1875,NA,"NAC","NAC","NAC","NAC","ultisols, oxisols",NA,NA,NA,NA,NA,NA,NA,NA,NA,NA,2152,NA,"[Cook-Patton database citation, in ForC format]","R script by Valentine Herrmann",NA,NA,NA,NA,TRUE
2389,"Parque Zoobotânico",NA,NA,NA,NA,"Acre","Brazil",-9.95,-67.866667,NA,NA,26,NA,NA,1875,NA,"NAC","NAC","NAC","NAC","ultisols, oxisols",NA,NA,NA,NA,NA,NA,NA,NA,NA,NA,2151,NA,"[Cook-Patton database citation, in ForC format]","R script by Valentine Herrmann",NA,NA,NA,NA,TRUE
2390,"Igarape-Acu",NA,NA,NA,NA,"Para","Brazil",-1.151389,-47.620556,NA,NA,25.5,NA,NA,2050,NA,"NAC","NAC","NAC","NAC","Ultisols",NA,NA,NA,NA,NA,NA,NA,NA,NA,NA,3774,NA,"[Cook-Patton database citation, in ForC format]","R script by Valentine Herrmann",NA,NA,NA,NA,TRUE
2391,"Ebolowa",NA,NA,NA,NA,"","Cameroon",2.508333,11.15,613,NA,NA,NA,NA,1820,NA,"NAC","NAC","NAC","NAC","oxisols",NA,NA,NA,NA,NA,NA,NA,NA,NA,NA,2375,NA,"[Cook-Patton database citation, in ForC format]","R script by Valentine Herrmann",NA,NA,NA,NA,TRUE
2392,"Mbalmayo",NA,NA,NA,NA,"","Cameroon",3.433333,11.708333,675,NA,NA,NA,NA,1750,NA,"NAC","NAC","NAC","NAC","oxisols",NA,NA,NA,NA,NA,NA,NA,NA,NA,NA,2377,NA,"[Cook-Patton database citation, in ForC format]","R script by Valentine Herrmann",NA,NA,NA,NA,TRUE
2393,"Yaounde",NA,NA,NA,NA,"","Cameroon",4.158333,11.416667,573,NA,NA,NA,NA,1600,NA,"NAC","NAC","NAC","NAC","oxisols/ultisols",NA,NA,NA,NA,NA,NA,NA,NA,NA,NA,2379,NA,"[Cook-Patton database citation, in ForC format]","R script by Valentine Herrmann",NA,NA,NA,NA,TRUE
2394,"Central Rondonia Chronosequence",NA,NA,NA,NA,"Rondonia","Brazil",-10.316667,-62.766667,143,NA,27.6,NA,NA,2290,NA,"NAC","NAC","NAC","NAC","Ultisols/Troporthent soils",NA,NA,NA,NA,NA,NA,NA,NA,NA,NA,105,NA,"[Cook-Patton database citation, in ForC format]","R script by Valentine Herrmann",NA,NA,NA,NA,TRUE
2395,"La Selva",NA,NA,NA,NA,"Sarapiqui","Costa Rica",10.433333,-84,120,NA,26,NA,NA,3800,NA,"NAC","NAC","NAC","NAC","Inceptisols, Ultisols",NA,NA,NA,NA,NA,NA,NA,NA,NA,NA,2113,NA,"[Cook-Patton database citation, in ForC format]","R script by Valentine Herrmann",NA,NA,NA,NA,TRUE
2396,"Ibadan",NA,NA,NA,NA,"","Nigeria",7.5,3.9,NA,NA,NA,NA,NA,1350,NA,"NAC","NAC","NAC","NAC","Alfisols",NA,NA,NA,NA,NA,NA,NA,NA,NA,NA,2257,NA,"[Cook-Patton database citation, in ForC format]","R script by Valentine Herrmann",NA,NA,NA,NA,TRUE
2397,"Pau Brasil Ecological Station",NA,NA,NA,NA,"Bahia","Brazil",-16.383333,-39.183333,NA,NA,23,NA,NA,1696,NA,"NAC","NAC","NAC","NAC","Oxisols",NA,NA,NA,NA,NA,NA,NA,NA,NA,NA,3705,NA,"[Cook-Patton database citation, in ForC format]","R script by Valentine Herrmann",NA,NA,NA,NA,TRUE
2398,"Natural Pinus sylvestris stand",NA,NA,NA,NA,"Qostanay","Kazakhstan",53.5,66,NA,NA,NA,NA,NA,255,NA,"sandy","NaN","NaN","NaN",NA,NA,NA,NA,NA,NA,NA,NA,NA,NA,NA,3765,NA,"[Cook-Patton database citation, in ForC format]","R script by Valentine Herrmann",NA,NA,NA,NA,TRUE
2399,"Hubbard Brook Experimental Forest",NA,NA,NA,NA,"New Hampshire","United States",43.933333,-71.75,617,NA,NA,NA,NA,1350,NA,"NAC","NAC","NAC","NAC","Spodosol",NA,NA,NA,NA,NA,NA,NA,NA,NA,NA,3606,NA,"[Cook-Patton database citation, in ForC format]","R script by Valentine Herrmann",NA,NA,NA,NA,TRUE
2400,"Bajo Calima Concession",NA,NA,NA,NA,"Chocó","Colombia",3.916667,-77,100,NA,27.3,NA,NA,7000,NA,"clay loam","NaN","NaN","NaN","Entisol",NA,NA,NA,NA,NA,NA,NA,NA,NA,NA,2413,NA,"[Cook-Patton database citation, in ForC format]","R script by Valentine Herrmann",NA,NA,NA,NA,TRUE
2401,"Bura",NA,NA,NA,NA,"Tana River","Kenya",-1.133333,39.75,86,NA,NA,NA,NA,351,NA,"sandy clay loam, clay","NaN","NaN","NaN","Vertic Natrargids",NA,NA,NA,NA,NA,NA,NA,NA,NA,NA,2260,NA,"[Cook-Patton database citation, in ForC format]","R script by Valentine Herrmann",NA,NA,NA,NA,TRUE
2402,"Cedar Creek",NA,NA,NA,NA,"Minnesota","United States",45.400661,-93.196517,NA,NA,NA,NA,NA,NA,NA,"NAC","NAC","NAC","NAC","Udipsamment",NA,NA,NA,NA,NA,NA,NA,NA,NA,NA,2081,NA,"[Cook-Patton database citation, in ForC format]","R script by Valentine Herrmann",NA,NA,NA,NA,TRUE
2403,"Rio Madeira",NA,NA,NA,NA,"Amazonas","Brazil",-5.77,-61.43,NA,NA,27.5,NA,NA,2500,NA,"NAC","NAC","NAC","NAC","Ferralsols/Oxisols",NA,NA,NA,NA,NA,NA,NA,NA,NA,NA,56,NA,"[Cook-Patton database citation, in ForC format]","R script by Valentine Herrmann",NA,NA,NA,NA,TRUE
2404,"Patos",NA,NA,NA,NA,"Paraíba","Brazil",-7,-37.32,NA,NA,NA,NA,NA,750,NA,"NAC","NAC","NAC","NAC",NA,NA,NA,NA,NA,NA,NA,NA,NA,NA,NA,58,NA,"[Cook-Patton database citation, in ForC format]","R script by Valentine Herrmann",NA,NA,NA,NA,TRUE
2405,"Saldarriaga chronosequence",NA,NA,NA,NA,"","Venezuela/Columbia",1.933333,-67.05,119,NA,NA,NA,NA,3500,NA,"sandy clay","NaN","NaN","NaN","Oxisols, Ultisols",NA,NA,NA,NA,NA,NA,NA,NA,NA,NA,60,NA,"[Cook-Patton database citation, in ForC format]","R script by Valentine Herrmann",NA,NA,NA,NA,TRUE
2406,"Barro Colorado Island",NA,NA,NA,NA,"","Panama",9.15,-79.85,NA,NA,NA,NA,NA,2600,NA,"NAC","NAC","NAC","NAC","Oxisols/Alfisols",NA,NA,NA,NA,NA,NA,NA,NA,NA,NA,63,NA,"[Cook-Patton database citation, in ForC format]","R script by Valentine Herrmann",NA,NA,NA,NA,TRUE
2407,"Yucatán",NA,NA,NA,NA,"Yucatan","Mexico",20.089444,-89.495833,110,NA,26,NA,NA,1100,NA,"clay","NaN","NaN","NaN","Lithosols, Luvisols, Cambisols",NA,NA,NA,NA,NA,NA,NA,NA,NA,NA,64,NA,"[Cook-Patton database citation, in ForC format]","R script by Valentine Herrmann",NA,NA,NA,NA,TRUE
2408,"Serra do Conduru",NA,NA,NA,NA,"Bahia","Brazil",-14.416667,-39.083333,210,NA,24,NA,NA,2000,NA,"NAC","NAC","NAC","NAC","oxisols",NA,NA,NA,NA,NA,NA,NA,NA,NA,NA,140,NA,"[Cook-Patton database citation, in ForC format]","R script by Valentine Herrmann",NA,NA,NA,NA,TRUE
2409,"Mata Seca",NA,NA,NA,NA,"Minas Gerais","Brazil",-14.841667,-43.975,NA,NA,24,NA,NA,818,NA,"NAC","NAC","NAC","NAC",NA,NA,NA,NA,NA,NA,NA,NA,NA,NA,NA,66,NA,"[Cook-Patton database citation, in ForC format]","R script by Valentine Herrmann",NA,NA,NA,NA,TRUE
2410,"Casita",NA,NA,NA,NA,"Guanacaste","Costa Rica",10.8757,-85.5853,300,NA,25.8,NA,NA,1596,NA,"NAC","NAC","NAC","NAC"," Entisol  ",NA,NA,NA,NA,NA,NA,NA,NA,NA,NA,13905,NA,"[Cook-Patton database citation, in ForC format]","R script by Valentine Herrmann",NA,NA,NA,NA,TRUE
2411,"Salvatierra",NA,NA,NA,NA,"Santa Cruz","Bolivia",-15.502222,-63.025833,250,NA,25,NA,NA,1200,NA,"NAC","NAC","NAC","NAC",NA,NA,NA,NA,NA,NA,NA,NA,NA,NA,NA,68,NA,"[Cook-Patton database citation, in ForC format]","R script by Valentine Herrmann",NA,NA,NA,NA,TRUE
2412,"Smithsonian Environmental Research Center",NA,NA,NA,NA,"Maryland","United States",38.883333,-76.55,NA,NA,NA,NA,NA,NA,NA,"NAC","NAC","NAC","NAC",NA,NA,NA,NA,NA,NA,NA,NA,NA,NA,NA,2362,NA,"[Cook-Patton database citation, in ForC format]","R script by Valentine Herrmann",NA,NA,NA,NA,TRUE
2413,"Dawson Creek Forest District age sequence",NA,NA,NA,NA,"British Columbia","Canada",55.48,-120.18,NA,NA,NA,NA,NA,450,NA,"NAC","NAC","NAC","NAC","Luvisol, Brunisol",NA,NA,NA,NA,NA,NA,NA,NA,NA,NA,6902,NA,"[Cook-Patton database citation, in ForC format]","R script by Valentine Herrmann",NA,NA,NA,NA,TRUE
2414,"Acahual",NA,NA,NA,NA,"Veracruz","Mexico",17.291667,-94.583333,150,NA,24,NA,NA,3640,NA,"NAC","NAC","NAC","NAC","Oxisol; Alfisol",NA,NA,NA,NA,NA,NA,NA,NA,NA,NA,278,NA,"[Cook-Patton database citation, in ForC format]","R script by Valentine Herrmann",NA,NA,NA,NA,TRUE
2415,"Sokolov",NA,NA,NA,NA,"","Czech Republic",50.236401,12.690561,650,NA,6.8,NA,NA,650,NA,"NAC","NAC","NAC","NAC",NA,NA,NA,NA,NA,NA,NA,NA,NA,NA,NA,3800,NA,"[Cook-Patton database citation, in ForC format]","R script by Valentine Herrmann",NA,NA,NA,NA,TRUE
2416,"Sarapiqui (Chazdon)",NA,NA,NA,NA,"","Costa Rica",10.43,-83.98,NA,NA,25.8,NA,NA,3962,NA,"NAC","NAC","NAC","NAC","Ultisols",NA,NA,NA,NA,NA,NA,NA,NA,NA,NA,67,NA,"[Cook-Patton database citation, in ForC format]","R script by Valentine Herrmann",NA,NA,NA,NA,TRUE
2417,"Järvselja",NA,NA,NA,NA,"Tartu","Estonia",58.25,27.266667,NA,NA,5.4,NA,NA,675,NA,"loam","NaN","NaN","NaN","Umbric Gleysol",NA,NA,NA,NA,NA,NA,NA,NA,NA,NA,2037,NA,"[Cook-Patton database citation, in ForC format]","R script by Valentine Herrmann",NA,NA,NA,NA,TRUE
2418,"Matiguas",NA,NA,NA,NA,"","Nicaragua",12.833333,-85.45,316,NA,30,NA,NA,1400,NA,"NAC","NAC","NAC","NAC","Vertisols",NA,NA,NA,NA,NA,NA,NA,NA,NA,NA,175,NA,"[Cook-Patton database citation, in ForC format]","R script by Valentine Herrmann",NA,NA,NA,NA,TRUE
2419,"ASB Brazil 2",NA,NA,NA,NA,"","Brazil",-10.13,-62.23,NA,NA,NA,NA,NA,NA,NA,"NAC","NAC","NAC","NAC",NA,NA,NA,NA,NA,NA,NA,NA,NA,NA,NA,227,NA,"[Cook-Patton database citation, in ForC format]","R script by Valentine Herrmann",NA,NA,NA,NA,TRUE
2420,"ASB Brazil 1",NA,NA,NA,NA,"","Brazil",-10.06,-62.11,NA,NA,NA,NA,NA,NA,NA,"NAC","NAC","NAC","NAC",NA,NA,NA,NA,NA,NA,NA,NA,NA,NA,NA,229,NA,"[Cook-Patton database citation, in ForC format]","R script by Valentine Herrmann",NA,NA,NA,NA,TRUE
2421,"ASB Brazil 3",NA,NA,NA,NA,"","Brazil",-10.01,-67.09,NA,NA,NA,NA,NA,NA,NA,"NAC","NAC","NAC","NAC",NA,NA,NA,NA,NA,NA,NA,NA,NA,NA,NA,226,NA,"[Cook-Patton database citation, in ForC format]","R script by Valentine Herrmann",NA,NA,NA,NA,TRUE
2422,"ASB Cameroon 2",NA,NA,NA,NA,"","Cameroon",2.42,11.25,NA,NA,NA,NA,NA,NA,NA,"NAC","NAC","NAC","NAC",NA,NA,NA,NA,NA,NA,NA,NA,NA,NA,NA,210,NA,"[Cook-Patton database citation, in ForC format]","R script by Valentine Herrmann",NA,NA,NA,NA,TRUE
2423,"ASB Cameroon 1",NA,NA,NA,NA,"","Cameroon",2.59,11.03,NA,NA,NA,NA,NA,NA,NA,"NAC","NAC","NAC","NAC",NA,NA,NA,NA,NA,NA,NA,NA,NA,NA,NA,209,NA,"[Cook-Patton database citation, in ForC format]","R script by Valentine Herrmann",NA,NA,NA,NA,TRUE
2424,"ASB Cameroon 6",NA,NA,NA,NA,"","Cameroon",3.3,11.79,NA,NA,NA,NA,NA,NA,NA,"NAC","NAC","NAC","NAC",NA,NA,NA,NA,NA,NA,NA,NA,NA,NA,NA,3957,NA,"[Cook-Patton database citation, in ForC format]","R script by Valentine Herrmann",NA,NA,NA,NA,TRUE
2425,"ASB Cameroon 5",NA,NA,NA,NA,"","Cameroon",3.61,11.61,NA,NA,NA,NA,NA,NA,NA,"NAC","NAC","NAC","NAC",NA,NA,NA,NA,NA,NA,NA,NA,NA,NA,NA,3956,NA,"[Cook-Patton database citation, in ForC format]","R script by Valentine Herrmann",NA,NA,NA,NA,TRUE
2426,"ASB Cameroon 4",NA,NA,NA,NA,"","Cameroon",3.93,11.57,NA,NA,NA,NA,NA,NA,NA,"NAC","NAC","NAC","NAC",NA,NA,NA,NA,NA,NA,NA,NA,NA,NA,NA,211,NA,"[Cook-Patton database citation, in ForC format]","R script by Valentine Herrmann",NA,NA,NA,NA,TRUE
2427,"ASB Cameroon 3",NA,NA,NA,NA,"","Cameroon",4.24,11.26,NA,NA,NA,NA,NA,NA,NA,"NAC","NAC","NAC","NAC",NA,NA,NA,NA,NA,NA,NA,NA,NA,NA,NA,212,NA,"[Cook-Patton database citation, in ForC format]","R script by Valentine Herrmann",NA,NA,NA,NA,TRUE
2428,"Gonse (G10/G5)",NA,NA,NA,NA,"Kadiogo","Burkina Faso",12.3994,-1.3,300,NA,NA,NA,NA,735,NA,"NAC","NAC","NAC","NAC","ferruginous",NA,NA,NA,NA,NA,NA,NA,NA,NA,NA,343,NA,"[Cook-Patton database citation, in ForC format]","R script by Valentine Herrmann",NA,NA,NA,NA,TRUE
2429,"Scituate Watershed",NA,NA,NA,NA,"Rhode Island","United States",41.8,-71.62,NA,NA,9.1,NA,NA,1280,NA,"coarse loamy over sandy","NaN","NaN","NaN","Dystrochrepts",NA,NA,NA,NA,NA,NA,NA,NA,NA,NA,2391,NA,"[Cook-Patton database citation, in ForC format]","R script by Valentine Herrmann",NA,NA,NA,NA,TRUE
2430,"Yellowstone National Park - moderate density young",NA,NA,NA,NA,"Wyoming","United States",44.362917,-110.720625,2346,NA,NA,NA,NA,465,NA,"NAC","NAC","NAC","NAC","Cryochrept or Cryumbrept",NA,NA,NA,NA,NA,NA,NA,NA,NA,NA,2218,NA,"[Cook-Patton database citation, in ForC format]","R script by Valentine Herrmann",NA,NA,NA,NA,TRUE
2431,"Yellowstone National Park - low density young",NA,NA,NA,NA,"Wyoming","United States",44.451736,-110.639028,2434,NA,NA,NA,NA,464,NA,"NAC","NAC","NAC","NAC","Cryochrept or Cryumbrept",NA,NA,NA,NA,NA,NA,NA,NA,NA,NA,13977,NA,"[Cook-Patton database citation, in ForC format]","R script by Valentine Herrmann",NA,NA,NA,NA,TRUE
2432,"Yellowstone National Park - high density young",NA,NA,NA,NA,"Wyoming","United States",44.576667,-110.787708,2198,NA,NA,NA,NA,465,NA,"NAC","NAC","NAC","NAC","Cryochrept or Cryumbrept",NA,NA,NA,NA,NA,NA,NA,NA,NA,NA,2219,NA,"[Cook-Patton database citation, in ForC format]","R script by Valentine Herrmann",NA,NA,NA,NA,TRUE
2433,"Willow Creek",NA,NA,NA,NA,"Wisconsin","United States",45.8,-90.116667,480,NA,NA,NA,NA,NA,NA,"NAC","NAC","NAC","NAC",NA,NA,NA,NA,NA,NA,NA,NA,NA,NA,NA,2206,NA,"[Cook-Patton database citation, in ForC format]","R script by Valentine Herrmann",NA,NA,NA,NA,TRUE
2434,"Bartlett Forest M6",NA,NA,NA,NA,"New Hampshire","United States",43.983333,-71.416667,520,NA,NA,NA,NA,1270,NA,"NAC","NAC","NAC","NAC",NA,NA,NA,NA,NA,NA,NA,NA,NA,NA,NA,2029,NA,"[Cook-Patton database citation, in ForC format]","R script by Valentine Herrmann",NA,NA,NA,NA,TRUE
2435,"Bartlett Forest T30",NA,NA,NA,NA,"New Hampshire","United States",44.05,-71.233611,550,NA,NA,NA,NA,1270,NA,"NAC","NAC","NAC","NAC",NA,NA,NA,NA,NA,NA,NA,NA,NA,NA,NA,2031,NA,"[Cook-Patton database citation, in ForC format]","R script by Valentine Herrmann",NA,NA,NA,NA,TRUE
2436,"Bartlett Forest H6/H4",NA,NA,NA,NA,"New Hampshire","United States",44.133333,-71.283333,370,NA,NA,NA,NA,1270,NA,"NAC","NAC","NAC","NAC",NA,NA,NA,NA,NA,NA,NA,NA,NA,NA,NA,2028,NA,"[Cook-Patton database citation, in ForC format]","R script by Valentine Herrmann",NA,NA,NA,NA,TRUE
2437,"Bartlett Forest  M5",NA,NA,NA,NA,"New Hampshire","United States",44.133333,-71.233333,460,NA,NA,NA,NA,1270,NA,"NAC","NAC","NAC","NAC",NA,NA,NA,NA,NA,NA,NA,NA,NA,NA,NA,2030,NA,"[Cook-Patton database citation, in ForC format]","R script by Valentine Herrmann",NA,NA,NA,NA,TRUE
